id,formattedAddress,addressLine1,addressLine2,city,state,zipCode,county,latitude,longitude,propertyType,bedrooms,bathrooms,status,price,listingType,listedDate,removedDate,createdDate,lastSeenDate,daysOnMarket,squareFootage,yearBuilt,mlsName,mlsNumber,listingAgent,listingOffice,lotSize,hoa
"278-Watchung-Ave-Apt-A,-Orange,-NJ-07050","278 Watchung Ave Apt A, Orange, NJ 07050",278 Watchung Ave Apt A,,Orange,NJ,07050,Essex,40.783192,-74.229019,Apartment,0.0,1.0,Active,1220,Standard,2025-08-04T00:00:00.000Z,,2025-04-06T00:00:00.000Z,2025-08-04T03:12:23.938Z,1,,,,,,,,
"33-Schuyler-Trl,-East-Orange,-NJ-07017","33 Schuyler Trl, East Orange, NJ 07017",33 Schuyler Trl,,East Orange,NJ,07017,Essex,40.776871,-74.220413,Single Family,2.0,1.0,Active,2100,Standard,2025-08-04T00:00:00.000Z,,2025-08-04T00:00:00.000Z,2025-08-04T03:12:23.932Z,1,900.0,,,,,,,
"557-S-Orange-Ave,-South-Orange,-NJ-07079","557 S Orange Ave, South Orange, NJ 07079",557 S Orange Ave,,South Orange,NJ,07079,Essex,40.746152,-74.241698,Single Family,5.0,2.5,Active,5400,Standard,2025-08-04T00:00:00.000Z,,2025-06-18T00:00:00.000Z,2025-08-04T03:08:36.873Z,1,2400.0,,,,,,,
"229-Alexander-St,-Apt-2,-Newark,-NJ-07106","229 Alexander St, Apt 2, Newark, NJ 07106",229 Alexander St,Apt 2,Newark,NJ,07106,Essex,40.738106,-74.228371,Single Family,4.0,1.0,Active,2350,Standard,2025-08-04T00:00:00.000Z,,2023-04-21T00:00:00.000Z,2025-08-04T03:08:36.866Z,1,1800.0,,,,,,,
"390-Stuyvesant-Ave,-Units-1-&-14,-Irvington,-NJ-07111","390 Stuyvesant Ave, Units 1 & 14, Irvington, NJ 07111",390 Stuyvesant Ave,Units 1 & 14,Irvington,NJ,07111,Essex,40.733089,-74.234665,Single Family,0.0,1.0,Active,1195,Standard,2025-08-04T00:00:00.000Z,,2025-07-30T00:00:00.000Z,2025-08-04T03:08:36.865Z,1,,,,,,,,
"345-S-Clinton-St,-Unit-1R,-East-Orange,-NJ-07018","345 S Clinton St, Unit 1R, East Orange, NJ 07018",345 S Clinton St,Unit 1R,East Orange,NJ,07018,Essex,40.754025,-74.223022,Single Family,2.0,2.0,Active,2100,Standard,2025-08-04T00:00:00.000Z,,2025-06-20T00:00:00.000Z,2025-08-04T03:08:36.864Z,1,900.0,,,,,,,
"115-W-End-Ave,-Unit-3-3,-Newark,-NJ-07106","115 W End Ave, Unit 3-3, Newark, NJ 07106",115 W End Ave,Unit 3-3,Newark,NJ,07106,Essex,40.741669,-74.224442,Condo,2.0,1.0,Active,1950,Standard,2025-08-04T00:00:00.000Z,,2025-08-04T00:00:00.000Z,2025-08-04T03:08:36.853Z,1,,,,,,,,
"38-S-Walnut-St,-Unit-32-32,-East-Orange,-NJ-07018","38 S Walnut St, Unit 32-32, East Orange, NJ 07018",38 S Walnut St,Unit 32-32,East Orange,NJ,07018,Essex,40.76133,-74.213913,Condo,1.0,1.0,Active,1650,Standard,2025-08-04T00:00:00.000Z,,2025-08-01T00:00:00.000Z,2025-08-04T03:08:36.851Z,1,,,,,,,,
"108-Pine-St,-Apt-1,-Montclair,-NJ-07042","108 Pine St, Apt 1, Montclair, NJ 07042",108 Pine St,Apt 1,Montclair,NJ,07042,Essex,40.811684,-74.20784,Apartment,1.0,1.0,Active,1970,Standard,2025-08-04T00:00:00.000Z,,2025-07-10T00:00:00.000Z,2025-08-04T03:08:36.848Z,1,700.0,,,,,,,
"Highland-2-Bed-Ave,-Unit-416,-Orange,-NJ-07050","Highland-2 Bed Ave, Unit 416, Orange, NJ 07050",Highland-2 Bed Ave,Unit 416,Orange,NJ,07050,Essex,40.764179,-74.2412946,Condo,2.0,2.0,Active,2650,Standard,2025-08-04T00:00:00.000Z,,2024-08-14T00:00:00.000Z,2025-08-04T03:08:36.847Z,1,923.0,,,,,,,
"S-Day-1-Bed-203-St,-Unit-49,-Orange,-NJ-07050","S Day-1 Bed 203 St, Unit 49, Orange, NJ 07050",S Day-1 Bed 203 St,Unit 49,Orange,NJ,07050,Essex,40.771054199,-74.23079469,Condo,1.0,1.0,Active,2210,Standard,2025-08-04T00:00:00.000Z,,2024-08-29T00:00:00.000Z,2025-08-04T03:08:36.844Z,1,620.0,,,,,,,
"98-S-Grove-St,-Apt-1,-East-Orange,-NJ-07018","98 S Grove St, Apt 1, East Orange, NJ 07018",98 S Grove St,Apt 1,East Orange,NJ,07018,Essex,40.753784,-74.204559,Single Family,4.0,1.5,Active,2450,Standard,2025-08-04T00:00:00.000Z,,2025-02-13T00:00:00.000Z,2025-08-04T03:08:36.835Z,1,1500.0,,,,,,,
"70-S-Munn-Ave,-Unit-711-711,-East-Orange,-NJ-07018","70 S Munn Ave, Unit 711-711, East Orange, NJ 07018",70 S Munn Ave,Unit 711-711,East Orange,NJ,07018,Essex,40.755238,-74.210747,Condo,1.0,1.0,Active,1800,Standard,2025-08-04T00:00:00.000Z,,2025-08-03T00:00:00.000Z,2025-08-04T03:08:36.834Z,1,,,,,,,,
"38-S-Walnut-St,-Unit-5-5,-East-Orange,-NJ-07018","38 S Walnut St, Unit 5-5, East Orange, NJ 07018",38 S Walnut St,Unit 5-5,East Orange,NJ,07018,Essex,40.76133,-74.213913,Condo,1.0,1.0,Active,1650,Standard,2025-08-04T00:00:00.000Z,,2025-08-01T00:00:00.000Z,2025-08-04T03:08:36.833Z,1,,,,,,,,
"532-Sanford-Ave,-Unit-2,-Newark,-NJ-07106","532 Sanford Ave, Unit 2, Newark, NJ 07106",532 Sanford Ave,Unit 2,Newark,NJ,07106,Essex,40.743198,-74.232224,Condo,1.0,1.0,Active,1600,Standard,2025-08-04T00:00:00.000Z,,2025-07-18T00:00:00.000Z,2025-08-04T03:08:36.832Z,1,,,,,,,,
"145-Vermont-Ave,-Unit-2C,-Newark,-NJ-07106","145 Vermont Ave, Unit 2C, Newark, NJ 07106",145 Vermont Ave,Unit 2C,Newark,NJ,07106,Essex,40.740208,-74.222878,Single Family,4.0,1.5,Active,2350,Standard,2025-08-04T00:00:00.000Z,,2025-03-22T00:00:00.000Z,2025-08-04T03:08:36.830Z,1,1500.0,,,,,,,
"113-W-End-Ave,-Unit-113,-Newark,-NJ-07106","113 W End Ave, Unit 113, Newark, NJ 07106",113 W End Ave,Unit 113,Newark,NJ,07106,Essex,40.741627,-74.224358,Condo,2.0,1.0,Active,1950,Standard,2025-08-04T00:00:00.000Z,,2025-08-04T00:00:00.000Z,2025-08-04T03:08:36.827Z,1,,,,,,,,
"659-Nassau-St,-Orange,-NJ-07050","659 Nassau St, Orange, NJ 07050",659 Nassau St,,Orange,NJ,07050,Essex,40.765958,-74.249977,Apartment,2.0,1.0,Active,2100,Standard,2025-08-04T00:00:00.000Z,,2022-07-07T01:37:35.544Z,2025-08-04T03:08:36.787Z,1,,,,,,,,
"110-Halsted-St,-East-Orange,-NJ-07018","110 Halsted St, East Orange, NJ 07018",110 Halsted St,,East Orange,NJ,07018,Essex,40.762379,-74.219368,Single Family,1.0,1.0,Active,2050,Standard,2025-08-04T00:00:00.000Z,,2021-12-18T02:07:47.297Z,2025-08-04T03:08:36.777Z,1,900.0,,,,,,,
"276-Reock-St,---403,-Orange,-NJ-07050","276 Reock St, # 403, Orange, NJ 07050",276 Reock St,# 403,Orange,NJ,07050,Essex,40.770523,-74.230423,Condo,1.0,1.0,Active,1995,Standard,2025-08-04T00:00:00.000Z,,2025-01-07T00:00:00.000Z,2025-08-04T03:08:36.774Z,1,690.0,,,,,,,
"74-76-Isabella-Ave,-Unit-3C,-Newark,-NJ-07106","74-76 Isabella Ave, Unit 3C, Newark, NJ 07106",74-76 Isabella Ave,Unit 3C,Newark,NJ,07106,Essex,40.742516,-74.22052,Apartment,3.0,1.5,Active,2495,Standard,2025-08-04T00:00:00.000Z,,2025-03-21T00:00:00.000Z,2025-08-04T03:08:36.771Z,1,1000.0,,,,,,,
"76-Forest-St,-Unit-1,-Montclair,-NJ-07042","76 Forest St, Unit 1, Montclair, NJ 07042",76 Forest St,Unit 1,Montclair,NJ,07042,Essex,40.817619,-74.212799,Condo,3.0,3.0,Active,3800,Standard,2025-08-04T00:00:00.000Z,,2025-08-03T00:00:00.000Z,2025-08-04T03:08:36.759Z,1,1700.0,,,,,,,
"276-Reock-St,---503,-Orange,-NJ-07050","276 Reock St, # 503, Orange, NJ 07050",276 Reock St,# 503,Orange,NJ,07050,Essex,40.770523,-74.230423,Condo,1.0,1.0,Active,2240,Standard,2025-08-04T00:00:00.000Z,,2025-03-11T00:00:00.000Z,2025-08-04T03:08:36.756Z,1,690.0,,,,,,,
"25-Valley-Rd,-Unit-25,-Montclair,-NJ-07042","25 Valley Rd, Unit 25, Montclair, NJ 07042",25 Valley Rd,Unit 25,Montclair,NJ,07042,Essex,40.815647,-74.221085,Condo,1.0,1.0,Active,1750,Standard,2025-08-04T00:00:00.000Z,,2025-08-01T00:00:00.000Z,2025-08-04T03:08:36.754Z,1,,,,,,,,
"235-S-Munn-Ave,-Unit-105,-Irvington,-NJ-07111","235 S Munn Ave, Unit 105, Irvington, NJ 07111",235 S Munn Ave,Unit 105,Irvington,NJ,07111,Essex,40.737007,-74.221321,Single Family,2.0,1.0,Active,1895,Standard,2025-08-04T00:00:00.000Z,,2025-07-17T00:00:00.000Z,2025-08-04T03:08:36.752Z,1,,,,,,,,
"321-Sanford-Ave,-Unit-B2,-Newark,-NJ-07106","321 Sanford Ave, Unit B2, Newark, NJ 07106",321 Sanford Ave,Unit B2,Newark,NJ,07106,Essex,40.750584,-74.230865,Single Family,1.0,1.0,Active,1675,Standard,2025-08-04T00:00:00.000Z,,2025-07-01T00:00:00.000Z,2025-08-04T03:08:36.750Z,1,,,,,,,,
"234-Smith-St,---2,-Newark,-NJ-07106","234 Smith St, # 2, Newark, NJ 07106",234 Smith St,# 2,Newark,NJ,07106,Essex,40.74395,-74.231064,Condo,2.0,1.0,Active,1750,Standard,2025-08-04T00:00:00.000Z,,2022-04-27T03:53:37.085Z,2025-08-04T03:08:36.749Z,1,,,,,,,,
"433-Lincoln-Ave,-Unit-433,-Orange,-NJ-07050","433 Lincoln Ave, Unit 433, Orange, NJ 07050",433 Lincoln Ave,Unit 433,Orange,NJ,07050,Essex,40.763676,-74.242622,Condo,2.0,1.0,Active,1900,Standard,2025-08-04T00:00:00.000Z,,2025-08-03T00:00:00.000Z,2025-08-04T03:08:36.743Z,1,,,,,,,,
"57-Glenridge-Ave,-Apt-1L,-Montclair,-NJ-07042","57 Glenridge Ave, Apt 1L, Montclair, NJ 07042",57 Glenridge Ave,Apt 1L,Montclair,NJ,07042,Essex,40.809777,-74.208552,Apartment,2.0,1.0,Active,2350,Standard,2025-08-04T00:00:00.000Z,,2024-06-18T00:00:00.000Z,2025-08-04T03:08:36.734Z,1,850.0,,,,,,,
"S-Day-studio-201-St,-Unit-49,-Orange,-NJ-07050","S Day-studio 201 St, Unit 49, Orange, NJ 07050",S Day-studio 201 St,Unit 49,Orange,NJ,07050,Essex,40.771054199,-74.23079469,Condo,0.0,1.0,Active,1935,Standard,2025-08-04T00:00:00.000Z,,2024-08-29T00:00:00.000Z,2025-08-04T03:08:36.733Z,1,470.0,,,,,,,
"209-William-St,-East-Orange,-NJ-07017","209 William St, East Orange, NJ 07017",209 William St,,East Orange,NJ,07017,Essex,40.761826,-74.203766,Single Family,1.0,1.0,Active,1600,Standard,2025-08-04T00:00:00.000Z,,2025-05-01T00:00:00.000Z,2025-08-04T03:08:32.913Z,1,750.0,,,,,,,
"12-Canfield-St,-Unit-14,-Orange,-NJ-07050","12 Canfield St, Unit 14, Orange, NJ 07050",12 Canfield St,Unit 14,Orange,NJ,07050,Essex,40.77153,-74.226707,Apartment,1.0,1.0,Active,1750,Standard,2025-08-04T00:00:00.000Z,,2025-07-09T00:00:00.000Z,2025-08-04T03:08:32.913Z,1,,,,,,,,
"47-Union-St,-Montclair,-NJ-07042","47 Union St, Montclair, NJ 07042",47 Union St,,Montclair,NJ,07042,Essex,40.810439,-74.216851,Apartment,1.0,1.0,Active,2000,Standard,2025-08-04T00:00:00.000Z,,2019-11-07T08:06:18.939Z,2025-08-04T03:08:32.906Z,1,,,,,,,,
"63-Hawthorne-Ave,-East-Orange,-NJ-07018","63 Hawthorne Ave, East Orange, NJ 07018",63 Hawthorne Ave,,East Orange,NJ,07018,Essex,40.754276,-74.208985,Single Family,3.0,2.0,Active,2850,Standard,2025-08-04T00:00:00.000Z,,2025-06-26T00:00:00.000Z,2025-08-04T03:08:32.901Z,1,,,,,,,,
"154-Taylor-St,-Orange,-NJ-07050","154 Taylor St, Orange, NJ 07050",154 Taylor St,,Orange,NJ,07050,Essex,40.766022,-74.228699,Single Family,3.0,1.0,Active,2450,Standard,2025-08-04T00:00:00.000Z,,2025-06-26T00:00:00.000Z,2025-08-04T03:08:32.897Z,1,,,,,,,,
"61-N-Arlington-Ave,-Apt-1K,-East-Orange,-NJ-07017","61 N Arlington Ave, Apt 1K, East Orange, NJ 07017",61 N Arlington Ave,Apt 1K,East Orange,NJ,07017,Essex,40.763317,-74.20977,Condo,1.0,1.0,Active,1523,Standard,2025-08-04T00:00:00.000Z,,2025-03-20T00:00:00.000Z,2025-08-04T03:08:32.890Z,1,440.0,,,,,,,
"21-Vail-St,-Apt-3L,-Newark,-NJ-07106","21 Vail St, Apt 3L, Newark, NJ 07106",21 Vail St,Apt 3L,Newark,NJ,07106,Essex,40.749516,-74.233704,Single Family,3.0,1.0,Active,1899,Standard,2025-08-04T00:00:00.000Z,,2025-05-09T00:00:00.000Z,2025-08-04T03:08:32.888Z,1,1200.0,,,,,,,
"365-Park-Ave,-Unit-316-316,-East-Orange,-NJ-07017","365 Park Ave, Unit 316-316, East Orange, NJ 07017",365 Park Ave,Unit 316-316,East Orange,NJ,07017,Essex,40.767544,-74.20755,Condo,1.0,1.0,Active,1375,Standard,2025-08-04T00:00:00.000Z,,2025-07-30T00:00:00.000Z,2025-08-04T03:08:32.886Z,1,,,,,,,,
"140-Washington-St,-Apt-A2,-East-Orange,-NJ-07017","140 Washington St, Apt A2, East Orange, NJ 07017",140 Washington St,Apt A2,East Orange,NJ,07017,Essex,40.776714,-74.221436,Condo,1.0,1.0,Active,1550,Standard,2025-08-04T00:00:00.000Z,,2023-05-10T00:00:00.000Z,2025-08-04T03:08:32.885Z,1,,,,,,,,
"372-374-S-20th-St,-Unit-8,-Newark,-NJ-07103","372-374 S 20th St, Unit 8, Newark, NJ 07103",372-374 S 20th St,Unit 8,Newark,NJ,07103,Essex,40.744457,-74.208549,Apartment,2.0,1.0,Active,1895,Standard,2025-08-04T00:00:00.000Z,,2025-06-18T00:00:00.000Z,2025-08-04T03:08:32.882Z,1,,,,,,,,
"449-14th-Ave,-Apt-2,-Irvington,-NJ-07111","449 14th Ave, Apt 2, Irvington, NJ 07111",449 14th Ave,Apt 2,Irvington,NJ,07111,Essex,40.742134,-74.212906,Apartment,3.0,1.0,Active,2248,Standard,2025-08-04T00:00:00.000Z,,2025-06-21T00:00:00.000Z,2025-08-04T03:08:32.882Z,1,,,,,,,,
"208-Columbia-Ave,-Unit-2L,-Irvington,-NJ-07111","208 Columbia Ave, Unit 2L, Irvington, NJ 07111",208 Columbia Ave,Unit 2L,Irvington,NJ,07111,Essex,40.737949,-74.221458,Single Family,2.0,1.0,Active,1795,Standard,2025-08-04T00:00:00.000Z,,2025-07-01T00:00:00.000Z,2025-08-04T03:08:32.881Z,1,,,,,,,,
"193-Munn-Ave,-Unit-3,-Irvington,-NJ-07111","193 Munn Ave, Unit 3, Irvington, NJ 07111",193 Munn Ave,Unit 3,Irvington,NJ,07111,Essex,40.738575,-74.220726,Apartment,2.0,1.0,Active,1848,Standard,2025-08-04T00:00:00.000Z,,2025-04-26T00:00:00.000Z,2025-08-04T03:08:32.879Z,1,,,,,,,,
"38-S-Walnut-St,-Unit-23-23,-East-Orange,-NJ-07018","38 S Walnut St, Unit 23-23, East Orange, NJ 07018",38 S Walnut St,Unit 23-23,East Orange,NJ,07018,Essex,40.76133,-74.213913,Condo,1.0,1.0,Active,1650,Standard,2025-08-04T00:00:00.000Z,,2025-08-01T00:00:00.000Z,2025-08-04T03:08:32.879Z,1,,,,,,,,
"416-Highland-Ave,-Apt-231,-Orange,-NJ-07050","416 Highland Ave, Apt 231, Orange, NJ 07050",416 Highland Ave,Apt 231,Orange,NJ,07050,Essex,40.764187,-74.241234,Condo,1.0,1.0,Active,2076,Standard,2025-08-04T00:00:00.000Z,,2025-03-19T00:00:00.000Z,2025-08-04T03:08:32.876Z,1,663.0,,,,,,,
"46-Riggs-Pl,-Unit-46,-West-Orange,-NJ-07052","46 Riggs Pl, Unit 46, West Orange, NJ 07052",46 Riggs Pl,Unit 46,West Orange,NJ,07052,Essex,40.77261,-74.243797,Condo,1.0,1.0,Active,1975,Standard,2025-08-04T00:00:00.000Z,,2025-08-03T00:00:00.000Z,2025-08-04T03:08:32.875Z,1,,,,,,,,
"38-S-Walnut-St,-Unit-44-44,-East-Orange,-NJ-07018","38 S Walnut St, Unit 44-44, East Orange, NJ 07018",38 S Walnut St,Unit 44-44,East Orange,NJ,07018,Essex,40.76133,-74.213913,Condo,1.0,1.0,Active,1650,Standard,2025-08-04T00:00:00.000Z,,2025-08-01T00:00:00.000Z,2025-08-04T03:08:32.870Z,1,,,,,,,,
"6-Glenwood-Ave,-Unit-27-27,-East-Orange,-NJ-07017","6 Glenwood Ave, Unit 27-27, East Orange, NJ 07017",6 Glenwood Ave,Unit 27-27,East Orange,NJ,07017,Essex,40.770027,-74.219719,Condo,1.0,1.0,Active,1650,Standard,2025-08-04T00:00:00.000Z,,2025-08-01T00:00:00.000Z,2025-08-04T03:08:32.869Z,1,,,,,,,,
"25-Valley-Rd,-Unit-2-2,-Montclair,-NJ-07042","25 Valley Rd, Unit 2-2, Montclair, NJ 07042",25 Valley Rd,Unit 2-2,Montclair,NJ,07042,Essex,40.815647,-74.221085,Condo,1.0,1.0,Active,1750,Standard,2025-08-04T00:00:00.000Z,,2025-08-01T00:00:00.000Z,2025-08-04T03:08:32.866Z,1,,,,,,,,
"57-Mountain-View-Ave,-Unit-1,-Newark,-NJ-07106","57 Mountain View Ave, Unit 1, Newark, NJ 07106",57 Mountain View Ave,Unit 1,Newark,NJ,07106,Essex,40.747009,-74.220482,Single Family,4.0,1.0,Active,2400,Standard,2025-08-04T00:00:00.000Z,,2025-07-01T00:00:00.000Z,2025-08-04T03:08:32.865Z,1,,,,,,,,
"570-Bloomfield-Ave,-Unit-3-3,-Montclair,-NJ-07042","570 Bloomfield Ave, Unit 3-3, Montclair, NJ 07042",570 Bloomfield Ave,Unit 3-3,Montclair,NJ,07042,Essex,40.815487,-74.220078,Condo,1.0,1.0,Active,1900,Standard,2025-08-04T00:00:00.000Z,,2025-08-03T00:00:00.000Z,2025-08-04T03:08:32.862Z,1,,,,,,,,
"379-S-20th-St,-Unit-1LA,-Newark,-NJ-07103","379 S 20th St, Unit 1LA, Newark, NJ 07103",379 S 20th St,Unit 1LA,Newark,NJ,07103,Essex,40.74427,-74.209023,Apartment,3.0,1.0,Active,2295,Standard,2025-08-04T00:00:00.000Z,,2025-03-21T00:00:00.000Z,2025-08-04T03:08:32.861Z,1,,,,,,,,
"404-Stuyvesant-Ave,-Apt-4,-Irvington,-NJ-07111","404 Stuyvesant Ave, Apt 4, Irvington, NJ 07111",404 Stuyvesant Ave,Apt 4,Irvington,NJ,07111,Essex,40.733097,-74.234634,Single Family,1.0,1.0,Active,1395,Standard,2025-08-04T00:00:00.000Z,,2025-07-15T00:00:00.000Z,2025-08-04T03:08:32.859Z,1,800.0,,,,,,,
"324-Central-Ave,-Unit-5-5,-Orange,-NJ-07050","324 Central Ave, Unit 5-5, Orange, NJ 07050",324 Central Ave,Unit 5-5,Orange,NJ,07050,Essex,40.766573,-74.23545,Condo,1.0,1.0,Active,1400,Standard,2025-08-04T00:00:00.000Z,,2025-07-30T00:00:00.000Z,2025-08-04T03:08:32.857Z,1,,,,,,,,
"298-Halsted-St,-Apt-4,-East-Orange,-NJ-07018","298 Halsted St, Apt 4, East Orange, NJ 07018",298 Halsted St,Apt 4,East Orange,NJ,07018,Essex,40.756905,-74.223,Single Family,2.0,1.0,Active,1995,Standard,2025-08-04T00:00:00.000Z,,2025-07-18T00:00:00.000Z,2025-08-04T03:08:32.855Z,1,,,,,,,,
"532-Sanford-Ave,-Unit-7,-Newark,-NJ-07106","532 Sanford Ave, Unit 7, Newark, NJ 07106",532 Sanford Ave,Unit 7,Newark,NJ,07106,Essex,40.743198,-74.232224,Condo,3.0,1.0,Active,2000,Standard,2025-08-04T00:00:00.000Z,,2025-07-18T00:00:00.000Z,2025-08-04T03:08:32.851Z,1,1000.0,,,,,,,
"72-S-Essex-Ave,-Orange,-NJ-07050","72 S Essex Ave, Orange, NJ 07050",72 S Essex Ave,,Orange,NJ,07050,Essex,40.770756,-74.232002,Condo,2.0,2.0,Active,2940,Standard,2025-08-04T00:00:00.000Z,,2025-05-24T00:00:00.000Z,2025-08-04T03:08:32.846Z,1,1073.0,,,,,,,
"467-Park-Ave,-Unit-467,-East-Orange,-NJ-07017","467 Park Ave, Unit 467, East Orange, NJ 07017",467 Park Ave,Unit 467,East Orange,NJ,07017,Essex,40.769566,-74.211555,Condo,1.0,1.0,Active,1600,Standard,2025-08-04T00:00:00.000Z,,2025-08-02T00:00:00.000Z,2025-08-04T03:08:32.846Z,1,,,,,,,,
"204-Columbia-Ave,-Unit-4-4,-Irvington,-NJ-07111","204 Columbia Ave, Unit 4-4, Irvington, NJ 07111",204 Columbia Ave,Unit 4-4,Irvington,NJ,07111,Essex,40.738064,-74.221413,Condo,2.0,1.0,Active,1900,Standard,2025-08-04T00:00:00.000Z,,2025-08-03T00:00:00.000Z,2025-08-04T03:08:32.844Z,1,,,,,,,,
"91-W-Grove-Ter,-Apt-3,-Irvington,-NJ-07111","91 W Grove Ter, Apt 3, Irvington, NJ 07111",91 W Grove Ter,Apt 3,Irvington,NJ,07111,Essex,40.738728,-74.219109,Single Family,1.0,1.0,Active,1675,Standard,2025-08-04T00:00:00.000Z,,2025-07-01T00:00:00.000Z,2025-08-04T03:08:32.842Z,1,,,,,,,,
"365-Park-Ave,-Unit-512-512,-East-Orange,-NJ-07017","365 Park Ave, Unit 512-512, East Orange, NJ 07017",365 Park Ave,Unit 512-512,East Orange,NJ,07017,Essex,40.767544,-74.20755,Condo,1.0,1.0,Active,1375,Standard,2025-08-04T00:00:00.000Z,,2025-07-30T00:00:00.000Z,2025-08-04T03:08:32.841Z,1,,,,,,,,
"392-Stuyvesant-Ave,-Units-15-&-18,-Irvington,-NJ-07111","392 Stuyvesant Ave, Units 15 & 18, Irvington, NJ 07111",392 Stuyvesant Ave,Units 15 & 18,Irvington,NJ,07111,Essex,40.733074,-74.234642,Single Family,0.0,1.0,Active,1195,Standard,2025-08-04T00:00:00.000Z,,2025-06-24T00:00:00.000Z,2025-08-04T03:08:32.838Z,1,,,,,,,,
"488-Heywood-Ave,---2,-Orange,-NJ-07050","488 Heywood Ave, # 2, Orange, NJ 07050",488 Heywood Ave,# 2,Orange,NJ,07050,Essex,40.758038,-74.248726,Condo,3.0,1.0,Active,2300,Standard,2025-08-04T00:00:00.000Z,,2025-07-03T00:00:00.000Z,2025-08-04T03:08:32.837Z,1,,,,,,,,
"167-S-Munn-Ave,-Unit-2,-East-Orange,-NJ-07018","167 S Munn Ave, Unit 2, East Orange, NJ 07018",167 S Munn Ave,Unit 2,East Orange,NJ,07018,Essex,40.749241,-74.215797,Condo,4.0,2.0,Active,3100,Standard,2025-08-04T00:00:00.000Z,,2025-07-25T00:00:00.000Z,2025-08-04T03:08:32.834Z,1,1951.0,,,,,,,
"140-Washington-St,-Apt-A7,-East-Orange,-NJ-07017","140 Washington St, Apt A7, East Orange, NJ 07017",140 Washington St,Apt A7,East Orange,NJ,07017,Essex,40.776714,-74.221436,Condo,0.0,1.0,Active,1400,Standard,2025-08-04T00:00:00.000Z,,2023-08-15T00:00:00.000Z,2025-08-04T03:08:32.833Z,1,,,,,,,,
"S-Day-2-Bed-205-St,-Unit-49,-Orange,-NJ-07050","S Day-2 Bed 205 St, Unit 49, Orange, NJ 07050",S Day-2 Bed 205 St,Unit 49,Orange,NJ,07050,Essex,40.771054199,-74.23079469,Condo,2.0,2.0,Active,2685,Standard,2025-08-04T00:00:00.000Z,,2024-08-29T00:00:00.000Z,2025-08-04T03:08:32.829Z,1,895.0,,,,,,,
"416-Highland-Ave,-Apt-411,-Orange,-NJ-07050","416 Highland Ave, Apt 411, Orange, NJ 07050",416 Highland Ave,Apt 411,Orange,NJ,07050,Essex,40.764187,-74.241234,Condo,0.0,1.0,Active,1900,Standard,2025-08-04T00:00:00.000Z,,2025-03-11T00:00:00.000Z,2025-08-04T03:08:32.825Z,1,533.0,,,,,,,
"207-S-Harrison-St,-Apt-23,-East-Orange,-NJ-07018","207 S Harrison St, Apt 23, East Orange, NJ 07018",207 S Harrison St,Apt 23,East Orange,NJ,07018,Essex,40.761951,-74.225868,Single Family,0.0,1.0,Active,1300,Standard,2025-08-04T00:00:00.000Z,,2025-07-31T00:00:00.000Z,2025-08-04T03:08:32.824Z,1,,,,,,,,
"15-Davis-Ave,-Unit-1,-East-Orange,-NJ-07017","15 Davis Ave, Unit 1, East Orange, NJ 07017",15 Davis Ave,Unit 1,East Orange,NJ,07017,Essex,40.76009,-74.206497,Single Family,5.0,2.0,Active,2949,Standard,2025-08-04T00:00:00.000Z,,2025-07-05T00:00:00.000Z,2025-08-04T03:08:32.823Z,1,,,,,,,,
"168-S-Clinton-St,-Unit-D8,-East-Orange,-NJ-07018","168 S Clinton St, Unit D8, East Orange, NJ 07018",168 S Clinton St,Unit D8,East Orange,NJ,07018,Essex,40.759521,-74.219551,Apartment,1.0,1.0,Active,1600,Standard,2022-02-21T00:00:00.000Z,,2022-02-22T00:42:01.338Z,2025-08-04T03:08:32.821Z,1261,,,,,,,,
"139-N-Arlington-Ave,-Apt-1F,-East-Orange,-NJ-07017","139 N Arlington Ave, Apt 1F, East Orange, NJ 07017",139 N Arlington Ave,Apt 1F,East Orange,NJ,07017,Essex,40.76572,-74.208054,Condo,2.0,1.0,Active,1827,Standard,2025-08-04T00:00:00.000Z,,2025-03-20T00:00:00.000Z,2025-08-04T03:08:32.783Z,1,865.0,,,,,,,
"379-S-20th-St,-Unit-2RA,-Newark,-NJ-07103","379 S 20th St, Unit 2RA, Newark, NJ 07103",379 S 20th St,Unit 2RA,Newark,NJ,07103,Essex,40.74427,-74.209023,Apartment,3.0,1.0,Active,2295,Standard,2025-08-04T00:00:00.000Z,,2025-03-11T00:00:00.000Z,2025-08-04T03:08:32.765Z,1,,,,,,,,
"260-Snyder-St,-Orange,-NJ-07050","260 Snyder St, Orange, NJ 07050",260 Snyder St,,Orange,NJ,07050,Essex,40.774897,-74.226281,Condo,2.0,1.0,Active,2000,Standard,2021-07-07T00:00:00.000Z,,2021-11-02T02:27:41.203Z,2025-08-04T03:08:32.729Z,1490,,,,,,,,
"63-Arnold-Ter,-Unit-1-1,-South-Orange,-NJ-07079","63 Arnold Ter, Unit 1-1, South Orange, NJ 07079",63 Arnold Ter,Unit 1-1,South Orange,NJ,07079,Essex,40.738377,-74.264481,Condo,1.0,1.0,Active,1900,Standard,2025-08-04T00:00:00.000Z,,2025-08-03T00:00:00.000Z,2025-08-04T03:08:32.717Z,1,,,,,,,,
"200-Boyden-Ave,-Maplewood,-NJ-07040","200 Boyden Ave, Maplewood, NJ 07040",200 Boyden Ave,,Maplewood,NJ,07040,Essex,40.72342,-74.25315,Apartment,0.0,1.0,Active,2113,Standard,2024-04-26T00:00:00.000Z,,2019-11-07T07:49:52.217Z,2025-08-04T03:03:28.482Z,466,541.0,2017.0,,,,,,
"14-2nd-St,-Apt-2A,-South-Orange,-NJ-07079","14 2nd St, Apt 2A, South Orange, NJ 07079",14 2nd St,Apt 2A,South Orange,NJ,07079,Essex,40.744431,-74.26104,Apartment,2.0,2.0,Active,3995,Standard,2024-10-25T00:00:00.000Z,,2021-10-07T01:10:31.978Z,2025-08-04T03:03:28.479Z,284,1220.0,,NestSeekers,3874154,"{'name': 'Deya Santibanez', 'phone': '9089108482', 'email': 'deyasanti1@gmail.com'}","{'name': 'Nest Seekers Summit/Short Hills, NJ', 'phone': '7323621523', 'email': 'tbyron@hudsonplacerealty.com'}",,
"56-S-Munn-Ave,-Apt-2A,-East-Orange,-NJ-07018","56 S Munn Ave, Apt 2A, East Orange, NJ 07018",56 S Munn Ave,Apt 2A,East Orange,NJ,07018,Essex,40.755859,-74.211517,Apartment,1.0,1.5,Active,1794,Standard,2022-12-08T00:00:00.000Z,,2025-06-19T00:00:00.000Z,2025-08-04T03:03:28.478Z,971,1000.0,,,,,,,
"10-S-Grove-St,-Apt-305,-East-Orange,-NJ-07018","10 S Grove St, Apt 305, East Orange, NJ 07018",10 S Grove St,Apt 305,East Orange,NJ,07018,Essex,40.756626,-74.203682,Apartment,2.0,1.0,Active,1800,Standard,2023-01-03T00:00:00.000Z,,2023-01-04T00:38:35.171Z,2025-08-04T03:03:28.476Z,945,,,,,,,,
"141-Bedford-St,-Unit-2ND,-East-Orange,-NJ-07018","141 Bedford St, Unit 2ND, East Orange, NJ 07018",141 Bedford St,Unit 2ND,East Orange,NJ,07018,Essex,40.751431,-74.229401,Apartment,2.0,1.0,Active,1900,Standard,2023-04-16T00:00:00.000Z,,2025-07-22T00:00:00.000Z,2025-08-04T03:03:28.473Z,842,900.0,,,,,,,
"25-N-Harrison-studio-St,-Unit-803,-East-Orange,-NJ-07017","25 N Harrison-studio St, Unit 803, East Orange, NJ 07017",25 N Harrison-studio St,Unit 803,East Orange,NJ,07017,Essex,40.768375,-74.219139,Apartment,0.0,1.0,Active,1395,Standard,2025-01-02T00:00:00.000Z,,2025-01-03T00:00:00.000Z,2025-08-04T03:03:28.473Z,215,,,,,,,,
"230-Washington-St,-Orange,-NJ-07050","230 Washington St, Orange, NJ 07050",230 Washington St,,Orange,NJ,07050,Essex,40.778192,-74.222777,Apartment,1.0,1.0,Active,1620,Standard,2022-03-09T00:00:00.000Z,,2021-04-16T01:24:45.581Z,2025-08-04T03:03:28.326Z,1245,700.0,,,,,,,
"36-S-Munn-Ave,-East-Orange,-NJ-07018","36 S Munn Ave, East Orange, NJ 07018",36 S Munn Ave,,East Orange,NJ,07018,Essex,40.757309,-74.211771,Apartment,1.0,1.0,Active,1450,Standard,2025-01-03T00:00:00.000Z,,2019-11-07T08:21:11.301Z,2025-08-04T03:03:28.321Z,214,,,,,,,,
"155-Evergreen-Pl,-East-Orange,-NJ-07018","155 Evergreen Pl, East Orange, NJ 07018",155 Evergreen Pl,,East Orange,NJ,07018,Essex,40.760796,-74.223206,Apartment,1.0,1.0,Active,1925,Standard,2024-08-15T00:00:00.000Z,,2025-07-18T00:00:00.000Z,2025-08-04T03:03:28.315Z,355,,,,,,,,
"191-193-Brookdale-3rd-Ave,-Unit-3RDFLOOR,-Newark,-NJ-07106","191-193 Brookdale 3rd Ave, Unit 3RDFLOOR, Newark, NJ 07106",191-193 Brookdale 3rd Ave,Unit 3RDFLOOR,Newark,NJ,07106,Essex,40.739784,-74.229584,Multi-Family,2.0,1.0,Active,1600,Standard,2023-12-27T00:00:00.000Z,,2025-07-01T00:00:00.000Z,2025-08-04T03:03:28.310Z,587,800.0,,,,,,,
"134-Elmwood-Ave,-Unit-2,-East-Orange,-NJ-07018","134 Elmwood Ave, Unit 2, East Orange, NJ 07018",134 Elmwood Ave,Unit 2,East Orange,NJ,07018,Essex,40.753941,-74.219444,Apartment,5.0,2.0,Active,3600,Standard,2023-12-25T00:00:00.000Z,,2023-12-26T00:00:00.000Z,2025-08-04T03:03:28.309Z,589,1800.0,,,,,,,
"715-Park-Ave,-Apt-3H,-East-Orange,-NJ-07017","715 Park Ave, Apt 3H, East Orange, NJ 07017",715 Park Ave,Apt 3H,East Orange,NJ,07017,Essex,40.773876,-74.221397,Apartment,1.0,1.0,Active,2295,Standard,2024-02-22T00:00:00.000Z,,2024-02-22T00:00:00.000Z,2025-08-04T03:03:28.307Z,530,800.0,,,,,,,
"125-S-Harrison-St,-East-Orange,-NJ-07018","125 S Harrison St, East Orange, NJ 07018",125 S Harrison St,,East Orange,NJ,07018,Essex,40.764051,-74.223372,Apartment,2.0,1.0,Active,2375,Standard,2024-04-12T00:00:00.000Z,,2021-02-02T01:08:08.759Z,2025-08-04T03:03:28.303Z,480,1050.0,2021.0,,,,,,
"123-S-Munn-Ave,-East-Orange,-NJ-07018","123 S Munn Ave, East Orange, NJ 07018",123 S Munn Ave,,East Orange,NJ,07018,Essex,40.752143,-74.213868,Apartment,1.0,1.0,Active,1925,Standard,2024-04-12T00:00:00.000Z,,2025-07-18T00:00:00.000Z,2025-08-04T03:03:28.303Z,480,,,,,,,,
"36-Hawthorne-Pl,-Montclair,-NJ-07042","36 Hawthorne Pl, Montclair, NJ 07042",36 Hawthorne Pl,,Montclair,NJ,07042,Essex,40.807648,-74.217917,Apartment,1.0,1.0,Active,2382,Standard,2025-01-03T00:00:00.000Z,,2025-07-18T00:00:00.000Z,2025-08-04T03:03:28.301Z,214,748.0,,,,,,,
"463-Highland-Ave,-Orange,-NJ-07050","463 Highland Ave, Orange, NJ 07050",463 Highland Ave,,Orange,NJ,07050,Essex,40.765617,-74.24221,Apartment,1.0,1.0,Active,1475,Standard,2025-01-03T00:00:00.000Z,,2023-01-24T02:03:53.943Z,2025-08-04T03:03:28.297Z,214,,,,,,,,
"100-Avalon-Blvd,-Roseland,-NJ-07068","100 Avalon Blvd, Roseland, NJ 07068",100 Avalon Blvd,,Roseland,NJ,07068,Essex,40.81553,-74.32171,Apartment,1.0,1.0,Active,2900,Standard,2024-04-26T00:00:00.000Z,,2019-11-02T08:20:39.193Z,2025-08-04T03:03:28.295Z,466,890.0,2015.0,,,,,,
"240-S-Harrison-St,-East-Orange,-NJ-07018","240 S Harrison St, East Orange, NJ 07018",240 S Harrison St,,East Orange,NJ,07018,Essex,40.76071,-74.22611,Apartment,1.0,2.0,Active,2300,Standard,2024-06-11T00:00:00.000Z,,2019-11-07T07:56:25.336Z,2025-08-04T03:03:28.294Z,420,1019.0,2013.0,,,,,,
"315-S-Harrison-St,-East-Orange,-NJ-07018","315 S Harrison St, East Orange, NJ 07018",315 S Harrison St,,East Orange,NJ,07018,Essex,40.759052,-74.229184,Apartment,0.0,1.0,Active,1650,Standard,2024-06-11T00:00:00.000Z,,2019-11-07T07:57:11.251Z,2025-08-04T03:03:28.293Z,420,715.0,2019.0,,,,,,
"258-S-Harrison-St,-East-Orange,-NJ-07018","258 S Harrison St, East Orange, NJ 07018",258 S Harrison St,,East Orange,NJ,07018,Essex,40.760446,-74.226972,Apartment,1.0,1.0,Active,2000,Standard,2024-06-11T00:00:00.000Z,,2021-11-06T02:08:05.438Z,2025-08-04T03:03:28.290Z,420,868.0,2021.0,,,,,,
"300-Linn-Dr,-Verona,-NJ-07044","300 Linn Dr, Verona, NJ 07044",300 Linn Dr,,Verona,NJ,07044,Essex,40.840609,-74.251495,Apartment,1.0,1.0,Active,2125,Standard,2024-06-11T00:00:00.000Z,,2020-07-04T03:10:52.168Z,2025-08-04T03:03:28.289Z,420,1025.0,,,,,,,
"41-Montrose-Unit-Duplex-St,-Rm-Rental,-Newark,-NJ-07106","41 Montrose Unit Duplex St, Rm Rental, Newark, NJ 07106",41 Montrose Unit Duplex St,Rm Rental,Newark,NJ,07106,Essex,40.7441633,-74.2383755,Apartment,1.0,1.5,Active,1500,Standard,2024-07-20T00:00:00.000Z,,2025-07-09T00:00:00.000Z,2025-08-04T03:03:28.289Z,381,1200.0,,,,,,,
"141-S-Harrison-St,-East-Orange,-NJ-07018","141 S Harrison St, East Orange, NJ 07018",141 S Harrison St,,East Orange,NJ,07018,Essex,40.763816,-74.224428,Apartment,0.0,1.0,Active,1700,Standard,2024-06-11T00:00:00.000Z,,2019-11-07T07:57:10.996Z,2025-08-04T03:03:28.288Z,420,489.0,2022.0,,,,,,
"144-S-Harrison-St,-East-Orange,-NJ-07018","144 S Harrison St, East Orange, NJ 07018",144 S Harrison St,,East Orange,NJ,07018,Essex,40.76292,-74.22291,Apartment,0.0,1.0,Active,1750,Standard,2024-06-11T00:00:00.000Z,,2019-11-07T07:55:31.456Z,2025-08-04T03:03:28.287Z,420,597.0,2016.0,,,,,,
"29-Greenbrook-Rd,-Fairfield,-NJ-07004","29 Greenbrook Rd, Fairfield, NJ 07004",29 Greenbrook Rd,,Fairfield,NJ,07004,Essex,40.873147,-74.273399,Apartment,1.0,1.0,Active,2510,Standard,2024-06-11T00:00:00.000Z,,2020-06-10T03:24:58.054Z,2025-08-04T03:03:28.284Z,420,880.0,,,,,,,
"41-Montrose-Side-Duplex-St,-Unit-Right,-Newark,-NJ-07106","41 Montrose Side Duplex St, Unit Right, Newark, NJ 07106",41 Montrose Side Duplex St,Unit Right,Newark,NJ,07106,Essex,40.744144,-74.23833,Apartment,3.0,2.0,Active,3200,Standard,2024-07-21T00:00:00.000Z,,2024-07-21T00:00:00.000Z,2025-08-04T03:03:28.284Z,380,1200.0,,,,,,,
"57-Derwent-Ave,-Unit-2,-Verona,-NJ-07044","57 Derwent Ave, Unit 2, Verona, NJ 07044",57 Derwent Ave,Unit 2,Verona,NJ,07044,Essex,40.83392,-74.241814,Apartment,4.0,1.5,Active,3800,Standard,2024-06-29T00:00:00.000Z,,2023-03-01T00:00:00.000Z,2025-08-04T03:03:28.283Z,402,2000.0,,,,,,,
"271-Washington-St,-Unit-1,-Orange,-NJ-07050","271 Washington St, Unit 1, Orange, NJ 07050",271 Washington St,Unit 1,Orange,NJ,07050,Essex,40.779354,-74.222916,Multi-Family,4.0,1.0,Active,3000,Standard,2024-08-08T00:00:00.000Z,,2024-08-09T00:00:00.000Z,2025-08-04T03:03:28.279Z,362,,,NewJerseyMLS,24025635,"{'name': 'Nana Agyare', 'phone': '9732231338', 'email': 'kingdomroyaltyhomes@gmail.com'}","{'name': 'UNITED REAL ESTATE', 'phone': '8885016953', 'email': 'unitednorthjersey@gmail.com', 'website': 'www.unitedrealestatenorthjersey.com'}",,
"107-Delmar-Pl,-Unit-1,-Irvington,-NJ-07111","107 Delmar Pl, Unit 1, Irvington, NJ 07111",107 Delmar Pl,Unit 1,Irvington,NJ,07111,Essex,40.735229,-74.225403,Multi-Family,3.0,2.0,Active,2400,Standard,2024-08-23T00:00:00.000Z,,2024-08-24T00:00:00.000Z,2025-08-04T03:03:28.278Z,347,,1953.0,GardenState,3920315,"{'name': 'Maria H Gutierrez', 'phone': '9737720660', 'email': 'ggrealtors2@gmail.com'}","{'name': 'Realty One Group Legend', 'phone': '9737720660', 'email': 'info@roglegend.com', 'website': 'https://www.roglegend.com/'}",2614.0,
"190-Millburn-Ave,-Millburn,-NJ-07041","190 Millburn Ave, Millburn, NJ 07041",190 Millburn Ave,,Millburn,NJ,07041,Essex,40.722008,-74.296114,Apartment,1.0,1.0,Active,1900,Standard,2024-08-03T00:00:00.000Z,,2019-09-27T07:48:21.476Z,2025-08-04T03:03:28.277Z,367,,,NewJerseyMLS,24025152,"{'name': 'Sang K Lee', 'phone': '2019442377'}","{'name': 'SKNJ Realty, LLC', 'phone': '2019442377'}",,
"160-Maplewood-Ave,-Maplewood,-NJ-07040","160 Maplewood Ave, Maplewood, NJ 07040",160 Maplewood Ave,,Maplewood,NJ,07040,Essex,40.731,-74.27687,Apartment,1.0,1.5,Active,4700,Standard,2024-08-09T00:00:00.000Z,,2019-11-07T08:14:12.761Z,2025-08-04T03:03:28.271Z,361,583.0,,,,,,,
"378-Millburn-Ave,-Unit-3,-Millburn,-NJ-07041","378 Millburn Ave, Unit 3, Millburn, NJ 07041",378 Millburn Ave,Unit 3,Millburn,NJ,07041,Essex,40.723133,-74.30941,Single Family,2.0,2.0,Active,6000,Standard,2024-11-08T00:00:00.000Z,,2024-04-24T00:00:00.000Z,2025-08-04T03:03:28.266Z,270,1164.0,2024.0,GardenState,3933591,"{'name': 'Joanna Parker-lentz', 'phone': '9736994388', 'email': 'joanna.parkerlentz@cbrealty.com', 'website': 'http://www.jodiandjoanna.com/'}","{'name': 'Coldwell Banker Realty', 'phone': '9733765200', 'email': 'michael.pennisi@cbmoves.com', 'website': 'https://www.coldwellbankerhomes.com//nj/short-hills/office/short-hills-office/oid_1688/'}",6970.0,
"555-Northfield-Ave,-West-Orange,-NJ-07052","555 Northfield Ave, West Orange, NJ 07052",555 Northfield Ave,,West Orange,NJ,07052,Essex,40.770415,-74.279873,Apartment,1.0,1.0,Active,2800,Standard,2024-12-05T00:00:00.000Z,,2023-01-21T01:08:55.037Z,2025-08-04T03:03:28.262Z,243,900.0,2023.0,,,,,,
"55-Washington-St,-East-Orange,-NJ-07017","55 Washington St, East Orange, NJ 07017",55 Washington St,,East Orange,NJ,07017,Essex,40.770458,-74.219325,Apartment,0.0,1.0,Active,2150,Standard,2024-12-05T00:00:00.000Z,,2025-07-18T00:00:00.000Z,2025-08-04T03:03:28.257Z,243,700.0,,,,,,,
"354-S-Orange-Ave,-Apt-2D,-South-Orange-Village-Township,-NJ-07079","354 S Orange Ave, Apt 2D, South Orange Village Township, NJ 07079",354 S Orange Ave,Apt 2D,South Orange Village Township,NJ,07079,Essex,40.744453,-74.249748,Single Family,3.0,2.0,Active,3095,Standard,2024-12-07T00:00:00.000Z,,2024-12-08T00:00:00.000Z,2025-08-04T03:03:28.255Z,241,,1970.0,GardenState,3937325,"{'name': 'Catalda Cocuzza', 'phone': '9733788300', 'email': 'catalda.cocuzza@cbrealty.com', 'website': 'https://www.coldwellbankerhomes.com/nj/maplewood/agent/catalda-cocuzza/aid_229144/'}","{'name': 'Coldwell Banker Realty', 'phone': '9733788300', 'email': 'michael.pennisi@cbmoves.com', 'website': 'https://www.coldwellbankerhomes.com//nj/maplewood/office/maplewood-office/oid_1578/'}",16988.0,
"354-S-Orange-Ave,-Apt-3D,-South-Orange-Village-Township,-NJ-07079","354 S Orange Ave, Apt 3D, South Orange Village Township, NJ 07079",354 S Orange Ave,Apt 3D,South Orange Village Township,NJ,07079,Essex,40.744453,-74.249748,Single Family,3.0,2.0,Active,2995,Standard,2024-12-07T00:00:00.000Z,,2024-12-08T00:00:00.000Z,2025-08-04T03:03:28.254Z,241,,1970.0,GardenState,3937327,"{'name': 'Catalda Cocuzza', 'phone': '9733788300', 'email': 'catalda.cocuzza@cbrealty.com', 'website': 'https://www.coldwellbankerhomes.com/nj/maplewood/agent/catalda-cocuzza/aid_229144/'}","{'name': 'Coldwell Banker Realty', 'phone': '9733788300', 'email': 'michael.pennisi@cbmoves.com', 'website': 'https://www.coldwellbankerhomes.com//nj/maplewood/office/maplewood-office/oid_1578/'}",16988.0,
"39-N-Fullerton-Ave,-Montclair,-NJ-07042","39 N Fullerton Ave, Montclair, NJ 07042",39 N Fullerton Ave,,Montclair,NJ,07042,Essex,40.815475,-74.215843,Apartment,1.0,1.0,Active,2575,Standard,2024-12-10T00:00:00.000Z,,2025-07-23T00:00:00.000Z,2025-08-04T03:03:28.253Z,238,750.0,1930.0,,,,,,
"41-Poe-Ave,---2,-Newark,-NJ-07106","41 Poe Ave, # 2, Newark, NJ 07106",41 Poe Ave,# 2,Newark,NJ,07106,Essex,40.747173,-74.234398,Multi-Family,2.0,1.0,Active,2400,Standard,2024-12-20T00:00:00.000Z,,2024-12-20T00:00:00.000Z,2025-08-04T03:03:28.248Z,228,1100.0,1902.0,,,,,,
"56-S-Munn-Ave,-Apt-3J,-East-Orange,-NJ-07018","56 S Munn Ave, Apt 3J, East Orange, NJ 07018",56 S Munn Ave,Apt 3J,East Orange,NJ,07018,Essex,40.755859,-74.211517,Apartment,1.0,1.0,Active,1589,Standard,2023-04-20T00:00:00.000Z,,2024-12-01T00:00:00.000Z,2025-08-04T03:03:28.245Z,838,750.0,,,,,,,
"137-Willowdale-Ave,-Apt-1,-Montclair,-NJ-07042","137 Willowdale Ave, Apt 1, Montclair, NJ 07042",137 Willowdale Ave,Apt 1,Montclair,NJ,07042,Essex,40.796303,-74.21579,Apartment,2.0,1.0,Active,2500,Standard,2023-05-19T00:00:00.000Z,,2023-05-20T00:00:00.000Z,2025-08-04T03:03:28.243Z,809,1160.0,1927.0,,,,,,
"543-Valley-Rd,-Ste-10,-Montclair,-NJ-07043","543 Valley Rd, Ste 10, Montclair, NJ 07043",543 Valley Rd,Ste 10,Montclair,NJ,07043,Essex,40.838417,-74.207069,Apartment,0.0,1.0,Active,1800,Standard,2023-08-11T00:00:00.000Z,,2023-08-11T00:00:00.000Z,2025-08-04T03:03:28.238Z,725,,,,,,,,
"543-Valley-Rd,-Ste-4,-Montclair,-NJ-07043","543 Valley Rd, Ste 4, Montclair, NJ 07043",543 Valley Rd,Ste 4,Montclair,NJ,07043,Essex,40.838417,-74.207069,Apartment,0.0,1.0,Active,2500,Standard,2023-08-11T00:00:00.000Z,,2023-08-11T00:00:00.000Z,2025-08-04T03:03:28.238Z,725,,,,,,,,
"204-Bloomfield-Ave-Apt-C,-Montclair,-NJ-07042","204 Bloomfield Ave Apt C, Montclair, NJ 07042",204 Bloomfield Ave Apt C,,Montclair,NJ,07042,Essex,40.809055,-74.212318,Apartment,3.0,2.0,Active,3450,Standard,2023-09-10T00:00:00.000Z,,2024-05-30T00:00:00.000Z,2025-08-04T03:03:28.237Z,695,1260.0,,,,,,3049.0,
"227-N-Oraton-Pkwy,-Apt-105,-East-Orange,-NJ-07017","227 N Oraton Pkwy, Apt 105, East Orange, NJ 07017",227 N Oraton Pkwy,Apt 105,East Orange,NJ,07017,Essex,40.765526,-74.205513,Apartment,1.0,1.0,Active,1655,Standard,2023-10-18T00:00:00.000Z,,2022-10-04T00:36:33.257Z,2025-08-04T03:03:28.236Z,657,600.0,,,,,,,
"324-S-Center-St,-Orange,-NJ-07050","324 S Center St, Orange, NJ 07050",324 S Center St,,Orange,NJ,07050,Essex,40.763584,-74.233613,Apartment,0.0,1.0,Active,1450,Standard,2025-01-03T00:00:00.000Z,,2019-08-09T12:53:52.425Z,2025-08-04T03:03:28.225Z,214,750.0,,,,,,,
"147-Halsted-St,-East-Orange,-NJ-07018","147 Halsted St, East Orange, NJ 07018",147 Halsted St,,East Orange,NJ,07018,Essex,40.761735,-74.220833,Apartment,4.0,2.0,Active,2350,Standard,2025-01-03T00:00:00.000Z,,2021-04-20T00:03:41.952Z,2025-08-04T03:03:28.223Z,214,900.0,,,,,,,
"299-S-Harrison-St,-East-Orange,-NJ-07018","299 S Harrison St, East Orange, NJ 07018",299 S Harrison St,,East Orange,NJ,07018,Essex,40.760156,-74.229363,Apartment,1.0,1.0,Active,1838,Standard,2025-01-03T00:00:00.000Z,,2019-11-07T07:57:21.224Z,2025-08-04T03:03:28.222Z,214,918.0,,,,,,,
"60-N-Arlington-Ave,-East-Orange,-NJ-07017","60 N Arlington Ave, East Orange, NJ 07017",60 N Arlington Ave,,East Orange,NJ,07017,Essex,40.762911,-74.208844,Apartment,2.0,1.0,Active,1975,Standard,2025-01-03T00:00:00.000Z,,2022-03-13T01:02:16.852Z,2025-08-04T03:03:28.219Z,214,850.0,1920.0,,,,,,
"15-Summit-St,-East-Orange,-NJ-07017","15 Summit St, East Orange, NJ 07017",15 Summit St,,East Orange,NJ,07017,Essex,40.765989,-74.208918,Apartment,2.0,1.0,Active,2095,Standard,2025-01-03T00:00:00.000Z,,2019-07-26T01:31:59.907Z,2025-08-04T03:03:28.218Z,214,850.0,1923.0,,,,,,
"94-S-Harrison-St,-East-Orange,-NJ-07018","94 S Harrison St, East Orange, NJ 07018",94 S Harrison St,,East Orange,NJ,07018,Essex,40.764359,-74.221512,Apartment,1.0,1.0,Active,1490,Standard,2025-01-03T00:00:00.000Z,,2020-04-04T05:01:16.093Z,2025-08-04T03:03:28.218Z,214,800.0,,,,,,,
"30-Lenox-Ave,-East-Orange,-NJ-07018","30 Lenox Ave, East Orange, NJ 07018",30 Lenox Ave,,East Orange,NJ,07018,Essex,40.759995,-74.213165,Apartment,1.0,1.0,Active,1500,Standard,2025-01-03T00:00:00.000Z,,2025-07-18T00:00:00.000Z,2025-08-04T03:03:28.216Z,214,,,,,,,,
"435-Bloomfield-Ave,-Verona,-NJ-07044","435 Bloomfield Ave, Verona, NJ 07044",435 Bloomfield Ave,,Verona,NJ,07044,Essex,40.829453,-74.242119,Apartment,1.0,1.0,Active,2850,Standard,2025-01-03T00:00:00.000Z,,2025-07-18T00:00:00.000Z,2025-08-04T03:03:28.215Z,214,765.0,,,,,,,
"9-Vose-Ave,-South-Orange,-NJ-07079","9 Vose Ave, South Orange, NJ 07079",9 Vose Ave,,South Orange,NJ,07079,Essex,40.74694,-74.25915,Apartment,1.0,1.0,Active,3745,Standard,2025-01-03T00:00:00.000Z,,2025-07-18T00:00:00.000Z,2025-08-04T03:03:28.212Z,214,1332.0,,,,,,,
"164-S-Harrison-St,-East-Orange,-NJ-07018","164 S Harrison St, East Orange, NJ 07018",164 S Harrison St,,East Orange,NJ,07018,Essex,40.762451,-74.223961,Apartment,1.0,1.0,Active,1850,Standard,2025-01-03T00:00:00.000Z,,2025-07-18T00:00:00.000Z,2025-08-04T03:03:28.211Z,214,950.0,,,,,,,
"495-Main-St,-Orange,-NJ-07050","495 Main St, Orange, NJ 07050",495 Main St,,Orange,NJ,07050,Essex,40.775566,-74.235695,Apartment,1.0,1.0,Active,1550,Standard,2025-01-03T00:00:00.000Z,,2019-11-07T07:58:45.824Z,2025-08-04T03:03:28.210Z,214,750.0,1939.0,,,,,,
"40-Lenox-Ave,-East-Orange,-NJ-07018","40 Lenox Ave, East Orange, NJ 07018",40 Lenox Ave,,East Orange,NJ,07018,Essex,40.760101,-74.213715,Apartment,2.0,1.0,Active,1875,Standard,2025-01-03T00:00:00.000Z,,2025-07-18T00:00:00.000Z,2025-08-04T03:03:28.209Z,214,,,,,,,,
"78-Elmwood-Ave-Apt-C,-East-Orange,-NJ-07018","78 Elmwood Ave Apt C, East Orange, NJ 07018",78 Elmwood Ave Apt C,,East Orange,NJ,07018,Essex,40.753002,-74.216927,Apartment,2.0,1.0,Active,1479,Standard,2024-04-04T00:00:00.000Z,,2023-07-16T00:00:00.000Z,2025-08-04T03:03:28.206Z,488,600.0,,,,,,,
"466-Highland-Ave,-Orange,-NJ-07050","466 Highland Ave, Orange, NJ 07050",466 Highland Ave,,Orange,NJ,07050,Essex,40.765089,-74.242906,Apartment,2.0,1.0,Active,2150,Standard,2025-01-03T00:00:00.000Z,,2025-07-18T00:00:00.000Z,2025-08-04T03:03:28.201Z,214,850.0,,,,,,,
"416-Highland-Ave,-Orange,-NJ-07050","416 Highland Ave, Orange, NJ 07050",416 Highland Ave,,Orange,NJ,07050,Essex,40.764187,-74.241234,Apartment,1.0,1.0,Active,2123,Standard,2025-01-18T00:00:00.000Z,,2023-02-25T00:00:00.000Z,2025-08-04T03:03:28.197Z,199,652.0,,,,,,,
"58-Chestnut-Unit-3rd-St,-Unit-2,-East-Orange,-NJ-07018","58 Chestnut Unit 3rd St, Unit 2, East Orange, NJ 07018",58 Chestnut Unit 3rd St,Unit 2,East Orange,NJ,07018,Essex,40.759581,-74.214814,Condo,3.0,1.0,Active,2300,Standard,2024-08-27T00:00:00.000Z,,2024-08-28T00:00:00.000Z,2025-08-04T03:03:28.193Z,343,1300.0,1945.0,,,,,,
"16-Willard-Pl,-Montclair,-NJ-07042","16 Willard Pl, Montclair, NJ 07042",16 Willard Pl,,Montclair,NJ,07042,Essex,40.814769,-74.210258,Multi-Family,3.0,1.5,Active,4200,Standard,2025-02-24T00:00:00.000Z,,2025-02-25T00:00:00.000Z,2025-08-04T02:56:11.462Z,162,,,NewJerseyMLS,25005761,"{'name': 'Thomas Borkowski', 'phone': '9737442700', 'email': 'sukiarthur@gmail.com'}","{'name': 'CENTURY 21 GEMINI REALTY, UPPER MON', 'phone': '9737442700', 'email': 'wdamstra@aol.com', 'website': 'c21geminihomes.com'}",,
"146-Stuyvesant-Ave,-Newark,-NJ-07106","146 Stuyvesant Ave, Newark, NJ 07106",146 Stuyvesant Ave,,Newark,NJ,07106,Essex,40.74129,-74.230126,Multi-Family,3.0,1.0,Active,2300,Standard,2025-02-24T00:00:00.000Z,,2025-02-25T00:00:00.000Z,2025-08-04T02:56:11.458Z,162,,1920.0,GardenState,3947399,"{'name': 'Marsha Oliver', 'phone': '2019601213'}","{'name': 'UNITED REAL ESTATE', 'phone': '8885016953', 'email': 'unitednorthjersey@gmail.com', 'website': 'www.unitedrealestatenorthjersey.com'}",4356.0,
"6-Glenwood-Ave,-Apt-36,-East-Orange,-NJ-07017","6 Glenwood Ave, Apt 36, East Orange, NJ 07017",6 Glenwood Ave,Apt 36,East Orange,NJ,07017,Essex,40.770027,-74.219719,Multi-Family,1.0,1.0,Active,1650,Standard,2025-02-28T00:00:00.000Z,,2025-03-01T00:00:00.000Z,2025-08-04T02:56:11.457Z,158,,1927.0,GardenState,3948149,"{'name': 'Khalil Hannah', 'phone': '2015328576', 'email': 'khalil.hannah@gmail.com'}","{'name': 'INSPIRED DREAM REAL ESTATE', 'phone': '9733272758', 'email': 'realtorjbalza@gmail.com'}",6970.0,
"365-Park-Ave,-Apt-515,-East-Orange,-NJ-07017","365 Park Ave, Apt 515, East Orange, NJ 07017",365 Park Ave,Apt 515,East Orange,NJ,07017,Essex,40.767544,-74.20755,Multi-Family,0.0,1.0,Active,1375,Standard,2025-02-28T00:00:00.000Z,,2025-03-01T00:00:00.000Z,2025-08-04T02:56:11.457Z,158,,1957.0,GardenState,3948159,"{'name': 'Khalil Hannah', 'phone': '2015328576', 'email': 'khalil.hannah@gmail.com'}","{'name': 'INSPIRED DREAM REAL ESTATE', 'phone': '9733272758', 'email': 'realtorjbalza@gmail.com'}",23087.0,
"146-Stuyvesant-Ave,-Unit-1,-Newark,-NJ-07106","146 Stuyvesant Ave, Unit 1, Newark, NJ 07106",146 Stuyvesant Ave,Unit 1,Newark,NJ,07106,Essex,40.741329,-74.230263,Multi-Family,3.0,1.0,Active,2300,Standard,2025-02-24T00:00:00.000Z,,2025-02-25T00:00:00.000Z,2025-08-04T02:56:11.456Z,162,,,NewJerseyMLS,25005839,"{'name': 'Marsha Oliver', 'phone': '2019601213'}","{'name': 'UNITED REAL ESTATE', 'phone': '8885016953', 'email': 'unitednorthjersey@gmail.com', 'website': 'www.unitedrealestatenorthjersey.com'}",,
"92-Carnegie-Ave,-East-Orange,-NJ-07018","92 Carnegie Ave, East Orange, NJ 07018",92 Carnegie Ave,,East Orange,NJ,07018,Essex,40.758453,-74.21756,Multi-Family,2.0,1.0,Active,2300,Standard,2025-02-21T00:00:00.000Z,,2025-02-22T00:00:00.000Z,2025-08-04T02:56:11.451Z,165,,,GardenState,3947092,"{'name': 'Clive Elson', 'phone': '9085875222', 'email': 'celson@century21ar.net', 'website': 'https://cliveelson.c21ar.net'}","{'name': 'CENTURY 21 Alliance Realty', 'phone': '9085875222', 'email': 'douglasr@c21ar.net', 'website': 'prudentialalliancerealty.net'}",8276.0,
"365-Park-Ave,-Apt-518,-East-Orange,-NJ-07017","365 Park Ave, Apt 518, East Orange, NJ 07017",365 Park Ave,Apt 518,East Orange,NJ,07017,Essex,40.767544,-74.20755,Multi-Family,0.0,1.0,Active,1375,Standard,2025-02-28T00:00:00.000Z,,2025-03-01T00:00:00.000Z,2025-08-04T02:56:11.451Z,158,,1957.0,GardenState,3948158,"{'name': 'Khalil Hannah', 'phone': '2015328576', 'email': 'khalil.hannah@gmail.com'}","{'name': 'INSPIRED DREAM REAL ESTATE', 'phone': '9733272758', 'email': 'realtorjbalza@gmail.com'}",23087.0,
"31-Beech-St,-Unit-4B,-East-Orange,-NJ-07018","31 Beech St, Unit 4B, East Orange, NJ 07018",31 Beech St,Unit 4B,East Orange,NJ,07018,Essex,40.757854,-74.214844,Multi-Family,2.0,1.0,Active,1875,Standard,2025-02-28T00:00:00.000Z,,2025-03-19T00:00:00.000Z,2025-08-04T02:56:11.450Z,158,,1957.0,GardenState,3948154,"{'name': 'Khalil Hannah', 'phone': '2015328576', 'email': 'khalil.hannah@gmail.com'}","{'name': 'INSPIRED DREAM REAL ESTATE', 'phone': '9733272758', 'email': 'realtorjbalza@gmail.com'}",8276.0,
"365-Park-Ave,-Apt-525,-East-Orange,-NJ-07017","365 Park Ave, Apt 525, East Orange, NJ 07017",365 Park Ave,Apt 525,East Orange,NJ,07017,Essex,40.767544,-74.20755,Multi-Family,0.0,1.0,Active,1375,Standard,2025-02-28T00:00:00.000Z,,2025-03-01T00:00:00.000Z,2025-08-04T02:56:11.449Z,158,,1957.0,GardenState,3948155,"{'name': 'Khalil Hannah', 'phone': '2015328576', 'email': 'khalil.hannah@gmail.com'}","{'name': 'INSPIRED DREAM REAL ESTATE', 'phone': '9733272758', 'email': 'realtorjbalza@gmail.com'}",23087.0,
"365-Park-Ave,-Apt-524,-East-Orange,-NJ-07017","365 Park Ave, Apt 524, East Orange, NJ 07017",365 Park Ave,Apt 524,East Orange,NJ,07017,Essex,40.767544,-74.20755,Multi-Family,0.0,1.0,Active,1375,Standard,2025-02-28T00:00:00.000Z,,2025-03-01T00:00:00.000Z,2025-08-04T02:56:11.448Z,158,,1927.0,GardenState,3948143,"{'name': 'Khalil Hannah', 'phone': '2015328576', 'email': 'khalil.hannah@gmail.com'}","{'name': 'INSPIRED DREAM REAL ESTATE', 'phone': '9733272758', 'email': 'realtorjbalza@gmail.com'}",23087.0,
"38-S-Walnut-St,-Apt-46,-East-Orange,-NJ-07018","38 S Walnut St, Apt 46, East Orange, NJ 07018",38 S Walnut St,Apt 46,East Orange,NJ,07018,Essex,40.76133,-74.213913,Multi-Family,1.0,1.0,Active,1850,Standard,2025-02-28T00:00:00.000Z,,2025-03-01T00:00:00.000Z,2025-08-04T02:56:11.448Z,158,,1927.0,GardenState,3948152,"{'name': 'Khalil Hannah', 'phone': '2015328576', 'email': 'khalil.hannah@gmail.com'}","{'name': 'INSPIRED DREAM REAL ESTATE', 'phone': '9733272758', 'email': 'realtorjbalza@gmail.com'}",7405.0,
"38-S-Walnut-St,-Apt-45,-East-Orange,-NJ-07018","38 S Walnut St, Apt 45, East Orange, NJ 07018",38 S Walnut St,Apt 45,East Orange,NJ,07018,Essex,40.76133,-74.213913,Multi-Family,1.0,1.0,Active,1650,Standard,2025-02-28T00:00:00.000Z,,2025-03-01T00:00:00.000Z,2025-08-04T02:56:11.446Z,158,,1927.0,GardenState,3948151,"{'name': 'Khalil Hannah', 'phone': '2015328576', 'email': 'khalil.hannah@gmail.com'}","{'name': 'INSPIRED DREAM REAL ESTATE', 'phone': '9733272758', 'email': 'realtorjbalza@gmail.com'}",7405.0,
"365-Park-Ave,-Unit-317,-East-Orange,-NJ-07017","365 Park Ave, Unit 317, East Orange, NJ 07017",365 Park Ave,Unit 317,East Orange,NJ,07017,Essex,40.767544,-74.20755,Multi-Family,0.0,1.0,Active,1375,Standard,2025-02-28T00:00:00.000Z,,2025-03-01T00:00:00.000Z,2025-08-04T02:56:11.445Z,158,,1957.0,GardenState,3948157,"{'name': 'Khalil Hannah', 'phone': '2015328576', 'email': 'khalil.hannah@gmail.com'}","{'name': 'INSPIRED DREAM REAL ESTATE', 'phone': '9733272758', 'email': 'realtorjbalza@gmail.com'}",23087.0,
"6-Glenwood-Ave,-Apt-4,-East-Orange,-NJ-07017","6 Glenwood Ave, Apt 4, East Orange, NJ 07017",6 Glenwood Ave,Apt 4,East Orange,NJ,07017,Essex,40.770027,-74.219719,Multi-Family,1.0,1.0,Active,1650,Standard,2025-02-28T00:00:00.000Z,,2025-03-01T00:00:00.000Z,2025-08-04T02:56:11.445Z,158,,1927.0,GardenState,3948146,"{'name': 'Khalil Hannah', 'phone': '2015328576', 'email': 'khalil.hannah@gmail.com'}","{'name': 'INSPIRED DREAM REAL ESTATE', 'phone': '9733272758', 'email': 'realtorjbalza@gmail.com'}",6970.0,
"365-Park-Ave,-Unit-A2,-East-Orange,-NJ-07017","365 Park Ave, Unit A2, East Orange, NJ 07017",365 Park Ave,Unit A2,East Orange,NJ,07017,Essex,40.767544,-74.20755,Multi-Family,0.0,1.0,Active,1375,Standard,2025-02-28T00:00:00.000Z,,2025-03-01T00:00:00.000Z,2025-08-04T02:56:11.444Z,158,,1957.0,GardenState,3948164,"{'name': 'Khalil Hannah', 'phone': '2015328576', 'email': 'khalil.hannah@gmail.com'}","{'name': 'INSPIRED DREAM REAL ESTATE', 'phone': '9733272758', 'email': 'realtorjbalza@gmail.com'}",23087.0,
"6-Glenwood-Ave,-Apt-24,-East-Orange,-NJ-07017","6 Glenwood Ave, Apt 24, East Orange, NJ 07017",6 Glenwood Ave,Apt 24,East Orange,NJ,07017,Essex,40.770027,-74.219719,Multi-Family,1.0,1.0,Active,1650,Standard,2025-02-28T00:00:00.000Z,,2025-03-01T00:00:00.000Z,2025-08-04T02:56:11.443Z,158,,1927.0,GardenState,3948147,"{'name': 'Khalil Hannah', 'phone': '2015328576', 'email': 'khalil.hannah@gmail.com'}","{'name': 'INSPIRED DREAM REAL ESTATE', 'phone': '9733272758', 'email': 'realtorjbalza@gmail.com'}",6970.0,
"129-N-Walnut,-Unit-Studio,-East-Orange,-NJ-07017","129 N Walnut, Unit Studio, East Orange, NJ 07017",129 N Walnut,Unit Studio,East Orange,NJ,07017,Essex,40.766842,-74.210449,Apartment,0.0,1.0,Active,1350,Standard,2025-01-27T00:00:00.000Z,,2025-01-28T00:00:00.000Z,2025-08-04T02:56:11.355Z,190,400.0,,,,,,,
"168-Hickory-St,-Apt-2,-City-Of-Orange-Township,-NJ-07050","168 Hickory St, Apt 2, City Of Orange Township, NJ 07050",168 Hickory St,Apt 2,City Of Orange Township,NJ,07050,Essex,40.765972,-74.228249,Multi-Family,4.0,2.0,Active,2500,Standard,2025-01-31T00:00:00.000Z,,2025-01-31T00:00:00.000Z,2025-08-04T02:56:11.353Z,186,,1900.0,GardenState,3943767,"{'name': 'Cooper Mckelvey Real Estate Co.', 'phone': '9086198066', 'email': 'tayllor@coopermckelveyrealty.co'}","{'name': 'COOPER MCKELVEY REAL ESTATE CO.', 'phone': '9734247066'}",4356.0,
"374-Kerrigan-Blvd,-Unit-2,-Newark,-NJ-07106","374 Kerrigan Blvd, Unit 2, Newark, NJ 07106",374 Kerrigan Blvd,Unit 2,Newark,NJ,07106,Essex,40.737259,-74.239449,Multi-Family,2.0,1.0,Active,2400,Standard,2025-02-01T00:00:00.000Z,,2025-02-02T00:00:00.000Z,2025-08-04T02:56:11.350Z,185,,,GardenState,3943982,"{'name': 'Sally Elam', 'phone': '9735179524', 'email': 'selam67891@gmail.com'}","{'name': 'THE MARC AGENCY', 'phone': '9083526194'}",6098.0,
"16-Willard-Pl,-Unit-1,-Montclair,-NJ-07042","16 Willard Pl, Unit 1, Montclair, NJ 07042",16 Willard Pl,Unit 1,Montclair,NJ,07042,Essex,40.81477,-74.210243,Multi-Family,3.0,1.5,Active,4200,Standard,2025-02-07T00:00:00.000Z,,2024-04-12T00:00:00.000Z,2025-08-04T02:56:11.347Z,179,,1964.0,GardenState,3944957,"{'name': 'Thomas M Borkowski', 'phone': '9172141641', 'email': 'tborkows@yahoo.com', 'website': 'http://tborealtor.com'}","{'name': 'CENTURY 21 Gemini LLC', 'phone': '9737442700', 'email': 'mmcfarland21@gmail.com', 'website': 'http://www.c21geminihomes.com/'}",4550.0,
"14-Noll-Pl,-Newark,-NJ-07106","14 Noll Pl, Newark, NJ 07106",14 Noll Pl,,Newark,NJ,07106,Essex,40.742275,-74.233955,Multi-Family,1.0,1.0,Active,1750,Standard,2025-02-08T00:00:00.000Z,,2025-02-09T00:00:00.000Z,2025-08-04T02:56:11.345Z,178,,1917.0,GardenState,3945113,"{'name': 'Leia Yoon', 'phone': '9738889711', 'email': 'lyoon@weichert.com', 'website': 'http://www.leia-yoon.weichert.com'}","{'name': 'EXP REALTY, LLC', 'phone': '7325153000'}",7405.0,
"25-N-Harrison-St,-Unit-Studio,-East-Orange,-NJ-07017","25 N Harrison St, Unit Studio, East Orange, NJ 07017",25 N Harrison St,Unit Studio,East Orange,NJ,07017,Essex,40.768375,-74.219139,Apartment,0.0,1.0,Active,1395,Standard,2025-02-11T00:00:00.000Z,,2025-02-12T00:00:00.000Z,2025-08-04T02:56:11.343Z,175,,,,,,,,
"46-S-Arlington-Ave,-Apt-4,-East-Orange,-NJ-07018","46 S Arlington Ave, Apt 4, East Orange, NJ 07018",46 S Arlington Ave,Apt 4,East Orange,NJ,07018,Essex,40.75922,-74.211784,Apartment,1.0,1.0,Active,1650,Standard,2025-02-11T00:00:00.000Z,,2025-02-12T00:00:00.000Z,2025-08-04T02:56:11.342Z,175,,,GardenState,3945516,"{'name': 'Khalil Hannah', 'phone': '2015328576', 'email': 'khalil.hannah@gmail.com'}","{'name': 'INSPIRED DREAM REAL ESTATE', 'phone': '9733272758', 'email': 'realtorjbalza@gmail.com'}",5663.0,
"121-Munn-Ave-Ph-S,-East-Orange,-NJ-07018","121 Munn Ave Ph S, East Orange, NJ 07018",121 Munn Ave Ph S,,East Orange,NJ,07018,Essex,40.752563,-74.215065,Multi-Family,3.0,2.0,Active,3450,Standard,2025-02-18T00:00:00.000Z,,2024-09-10T00:00:00.000Z,2025-08-04T02:56:11.337Z,168,1270.0,1963.0,GardenState,3946527,"{'name': 'Roman Drukarov', 'phone': '9734543218', 'email': 'roman.drukarov@foxroach.com', 'website': 'www.bhhsnj.com/roman.drukarov'}","{'name': 'BHHS Fox & Roach Livingston Sales Office', 'phone': '9739926363', 'email': 'clientservices@foxroach.com', 'website': 'https://livingston.foxroach.com'}",97574.0,
"121-127-Munn-Ave,-East-Orange,-NJ-07018","121-127 Munn Ave, East Orange, NJ 07018",121-127 Munn Ave,,East Orange,NJ,07018,Essex,40.752563,-74.215065,Apartment,3.0,2.0,Active,3450,Standard,2025-02-18T00:00:00.000Z,,2025-02-19T00:00:00.000Z,2025-08-04T02:56:11.336Z,168,,,NewJerseyMLS,25005240,"{'name': 'Roman Drukarov', 'phone': '9734543218', 'email': 'roman.drukarov@foxroach.com'}","{'name': 'BHHS Fox & Roach Livingston Sales Office', 'phone': '9739926363', 'email': 'clientservices@foxroach.com', 'website': 'https://livingston.foxroach.com'}",,
"149-High-St,-Unit-2,-West-Orange,-NJ-07052","149 High St, Unit 2, West Orange, NJ 07052",149 High St,Unit 2,West Orange,NJ,07052,Essex,40.787868,-74.22728,Multi-Family,4.0,1.0,Active,3200,Standard,2025-03-26T00:00:00.000Z,,2025-03-27T00:00:00.000Z,2025-08-04T02:56:11.331Z,132,,,GardenState,3952931,"{'name': 'Gladys Gabriel', 'phone': '9738854225', 'email': 'ggabriel@weichert.com', 'website': 'https://www.weichert.com/search/agents/agentprofile.aspx'}","{'name': 'WEICHERT REALTORS', 'phone': '8008391295', 'email': 'rdclead@wlninc.com'}",6098.0,
"31-Beech-St,-Unit-3A,-East-Orange,-NJ-07018","31 Beech St, Unit 3A, East Orange, NJ 07018",31 Beech St,Unit 3A,East Orange,NJ,07018,Essex,40.757854,-74.214844,Multi-Family,3.0,1.0,Active,2250,Standard,2025-02-28T00:00:00.000Z,,2025-03-19T00:00:00.000Z,2025-08-04T02:56:11.328Z,158,,1965.0,GardenState,3948172,"{'name': 'Khalil Hannah', 'phone': '2015328576', 'email': 'khalil.hannah@gmail.com'}","{'name': 'INSPIRED DREAM REAL ESTATE', 'phone': '9733272758', 'email': 'realtorjbalza@gmail.com'}",8276.0,
"31-Beech-St,-Unit-L1,-East-Orange,-NJ-07018","31 Beech St, Unit L1, East Orange, NJ 07018",31 Beech St,Unit L1,East Orange,NJ,07018,Essex,40.757854,-74.214844,Multi-Family,2.0,1.0,Active,1850,Standard,2025-02-28T00:00:00.000Z,,2025-03-19T00:00:00.000Z,2025-08-04T02:56:11.325Z,158,,1965.0,GardenState,3948173,"{'name': 'Khalil Hannah', 'phone': '2015328576', 'email': 'khalil.hannah@gmail.com'}","{'name': 'INSPIRED DREAM REAL ESTATE', 'phone': '9733272758', 'email': 'realtorjbalza@gmail.com'}",8276.0,
"17-Bamford-Pl,-Apt-2,-Irvington,-NJ-07111","17 Bamford Pl, Apt 2, Irvington, NJ 07111",17 Bamford Pl,Apt 2,Irvington,NJ,07111,Essex,40.734558,-74.229385,Multi-Family,4.0,1.0,Active,2800,Standard,2025-03-14T00:00:00.000Z,,2025-03-15T00:00:00.000Z,2025-08-04T02:56:11.322Z,144,,1953.0,GardenState,3950811,"{'name': 'Adeen Woodstock', 'phone': '5163738409', 'email': '2021businesswoman@gmail.com'}","{'name': 'RE/MAX FIRST REALTY II', 'phone': '9086641500', 'email': 'olivier@olivierlouis.com'}",3920.0,
"365-Park-Ave,-Unit-A4,-East-Orange,-NJ-07017","365 Park Ave, Unit A4, East Orange, NJ 07017",365 Park Ave,Unit A4,East Orange,NJ,07017,Essex,40.767544,-74.20755,Multi-Family,2.0,1.0,Active,1850,Standard,2025-02-28T00:00:00.000Z,,2025-03-01T00:00:00.000Z,2025-08-04T02:56:11.321Z,158,,1957.0,GardenState,3948165,"{'name': 'Khalil Hannah', 'phone': '2015328576', 'email': 'khalil.hannah@gmail.com'}","{'name': 'INSPIRED DREAM REAL ESTATE', 'phone': '9733272758', 'email': 'realtorjbalza@gmail.com'}",23087.0,
"365-Park-Ave,-Unit-316,-East-Orange,-NJ-07017","365 Park Ave, Unit 316, East Orange, NJ 07017",365 Park Ave,Unit 316,East Orange,NJ,07017,Essex,40.767544,-74.20755,Multi-Family,0.0,1.0,Active,1375,Standard,2025-02-28T00:00:00.000Z,,2025-03-01T00:00:00.000Z,2025-08-04T02:56:11.320Z,158,,1957.0,GardenState,3948166,"{'name': 'Khalil Hannah', 'phone': '2015328576', 'email': 'khalil.hannah@gmail.com'}","{'name': 'INSPIRED DREAM REAL ESTATE', 'phone': '9733272758', 'email': 'realtorjbalza@gmail.com'}",23087.0,
"156-Shepard-Ave,-Apt-2,-East-Orange,-NJ-07018","156 Shepard Ave, Apt 2, East Orange, NJ 07018",156 Shepard Ave,Apt 2,East Orange,NJ,07018,Essex,40.753716,-74.218842,Apartment,3.0,1.0,Active,2199,Standard,2025-03-01T00:00:00.000Z,,2025-02-28T00:00:00.000Z,2025-08-04T02:56:11.319Z,157,1500.0,,,,,,,
"38-S-Walnut-St,-Apt-3,-East-Orange,-NJ-07018","38 S Walnut St, Apt 3, East Orange, NJ 07018",38 S Walnut St,Apt 3,East Orange,NJ,07018,Essex,40.76133,-74.213913,Land,1.0,1.0,Active,1650,Standard,2025-02-28T00:00:00.000Z,,2025-03-01T00:00:00.000Z,2025-08-04T02:56:11.318Z,158,,1957.0,GardenState,3948205,"{'name': 'Khalil Hannah', 'phone': '2015328576', 'email': 'khalil.hannah@gmail.com'}","{'name': 'INSPIRED DREAM REAL ESTATE', 'phone': '9733272758', 'email': 'realtorjbalza@gmail.com'}",7405.0,
"31-Beech-St,-Unit-3C,-East-Orange,-NJ-07018","31 Beech St, Unit 3C, East Orange, NJ 07018",31 Beech St,Unit 3C,East Orange,NJ,07018,Essex,40.757854,-74.214844,Multi-Family,2.0,1.0,Active,1875,Standard,2025-02-28T00:00:00.000Z,,2025-03-19T00:00:00.000Z,2025-08-04T02:56:11.317Z,158,,1965.0,GardenState,3948171,"{'name': 'Khalil Hannah', 'phone': '2015328576', 'email': 'khalil.hannah@gmail.com'}","{'name': 'INSPIRED DREAM REAL ESTATE', 'phone': '9733272758', 'email': 'realtorjbalza@gmail.com'}",8276.0,
"150-Hillside-Unit-3rd-Ter-Fl-Un,-Irvington,-NJ-07111","150 Hillside Unit 3rd Ter Fl Un, Irvington, NJ 07111",150 Hillside Unit 3rd Ter Fl Un,,Irvington,NJ,07111,Essex,40.730949,-74.237259,Multi-Family,1.0,1.0,Active,1700,Standard,2025-03-20T00:00:00.000Z,,2025-06-04T00:00:00.000Z,2025-08-04T02:56:11.316Z,138,,,NewJerseyMLS,25008893,"{'name': 'Omar Fernandez', 'phone': '2014454300'}","{'name': 'EXP REALTY, LLC', 'phone': '8662016210', 'email': 'nj.broker@exprealty.net', 'website': 'www.exprealty.com'}",,
"38-S-Walnut-St,-Apt-44,-East-Orange,-NJ-07018","38 S Walnut St, Apt 44, East Orange, NJ 07018",38 S Walnut St,Apt 44,East Orange,NJ,07018,Essex,40.76133,-74.213913,Multi-Family,1.0,1.0,Active,1650,Standard,2025-02-28T00:00:00.000Z,,2025-03-01T00:00:00.000Z,2025-08-04T02:56:11.315Z,158,,1957.0,GardenState,3948174,"{'name': 'Khalil Hannah', 'phone': '2015328576', 'email': 'khalil.hannah@gmail.com'}","{'name': 'INSPIRED DREAM REAL ESTATE', 'phone': '9733272758', 'email': 'realtorjbalza@gmail.com'}",7405.0,
"6-Glenwood-Ave,-Apt-32,-East-Orange,-NJ-07017","6 Glenwood Ave, Apt 32, East Orange, NJ 07017",6 Glenwood Ave,Apt 32,East Orange,NJ,07017,Essex,40.770027,-74.219719,Multi-Family,2.0,1.0,Active,1850,Standard,2025-02-28T00:00:00.000Z,,2025-03-01T00:00:00.000Z,2025-08-04T02:56:11.309Z,158,,1957.0,GardenState,3948262,"{'name': 'Khalil Hannah', 'phone': '2015328576', 'email': 'khalil.hannah@gmail.com'}","{'name': 'INSPIRED DREAM REAL ESTATE', 'phone': '9733272758', 'email': 'realtorjbalza@gmail.com'}",6970.0,
"33-Ashland-Ave,-Apt-330,-West-Orange,-NJ-07052","33 Ashland Ave, Apt 330, West Orange, NJ 07052",33 Ashland Ave,Apt 330,West Orange,NJ,07052,Essex,40.782375,-74.234395,Single Family,1.0,1.0,Active,2425,Standard,2025-03-04T00:00:00.000Z,,2025-03-05T00:00:00.000Z,2025-08-04T02:56:11.307Z,154,,2020.0,GardenState,3948920,{'name': 'Jennifer Dalton'},"{'name': ""CHRISTIE'S INT.REAL ESTATE GROUP"", 'phone': '2018997100', 'email': 'res@christiesrennj.com', 'website': 'www.christiesrennj.com'}",914760.0,
"38-S-Walnut-St,-Apt-32,-East-Orange,-NJ-07018","38 S Walnut St, Apt 32, East Orange, NJ 07018",38 S Walnut St,Apt 32,East Orange,NJ,07018,Essex,40.76133,-74.213913,Multi-Family,1.0,1.0,Active,1650,Standard,2025-02-28T00:00:00.000Z,,2025-03-01T00:00:00.000Z,2025-08-04T02:56:11.306Z,158,,1957.0,GardenState,3948216,"{'name': 'Khalil Hannah', 'phone': '2015328576', 'email': 'khalil.hannah@gmail.com'}","{'name': 'INSPIRED DREAM REAL ESTATE', 'phone': '9733272758', 'email': 'realtorjbalza@gmail.com'}",7405.0,
"46-S-Arlington-Ave,-Apt-11,-East-Orange,-NJ-07018","46 S Arlington Ave, Apt 11, East Orange, NJ 07018",46 S Arlington Ave,Apt 11,East Orange,NJ,07018,Essex,40.75922,-74.211784,Multi-Family,1.0,1.0,Active,1650,Standard,2025-02-28T00:00:00.000Z,,2025-03-01T00:00:00.000Z,2025-08-04T02:56:11.305Z,158,,1957.0,GardenState,3948274,"{'name': 'Khalil Hannah', 'phone': '2015328576', 'email': 'khalil.hannah@gmail.com'}","{'name': 'INSPIRED DREAM REAL ESTATE', 'phone': '9733272758', 'email': 'realtorjbalza@gmail.com'}",5663.0,
"6-Glenwood-Ave,-Apt-47,-East-Orange,-NJ-07017","6 Glenwood Ave, Apt 47, East Orange, NJ 07017",6 Glenwood Ave,Apt 47,East Orange,NJ,07017,Essex,40.770027,-74.219719,Multi-Family,1.0,1.0,Active,1650,Standard,2025-02-28T00:00:00.000Z,,2025-03-01T00:00:00.000Z,2025-08-04T02:56:11.304Z,158,,1957.0,GardenState,3948223,"{'name': 'Khalil Hannah', 'phone': '2015328576', 'email': 'khalil.hannah@gmail.com'}","{'name': 'INSPIRED DREAM REAL ESTATE', 'phone': '9733272758', 'email': 'realtorjbalza@gmail.com'}",6970.0,
"38-S-Walnut-St,-Apt-5,-East-Orange,-NJ-07018","38 S Walnut St, Apt 5, East Orange, NJ 07018",38 S Walnut St,Apt 5,East Orange,NJ,07018,Essex,40.76133,-74.213913,Multi-Family,1.0,1.0,Active,1650,Standard,2025-02-28T00:00:00.000Z,,2025-03-01T00:00:00.000Z,2025-08-04T02:56:11.301Z,158,,1957.0,GardenState,3948213,"{'name': 'Khalil Hannah', 'phone': '2015328576', 'email': 'khalil.hannah@gmail.com'}","{'name': 'INSPIRED DREAM REAL ESTATE', 'phone': '9733272758', 'email': 'realtorjbalza@gmail.com'}",7405.0,
"38-S-Walnut-St,-Apt-23,-East-Orange,-NJ-07018","38 S Walnut St, Apt 23, East Orange, NJ 07018",38 S Walnut St,Apt 23,East Orange,NJ,07018,Essex,40.76133,-74.213913,Multi-Family,1.0,1.0,Active,1650,Standard,2025-02-28T00:00:00.000Z,,2025-03-01T00:00:00.000Z,2025-08-04T02:56:11.300Z,158,,1957.0,GardenState,3948214,"{'name': 'Khalil Hannah', 'phone': '2015328576', 'email': 'khalil.hannah@gmail.com'}","{'name': 'INSPIRED DREAM REAL ESTATE', 'phone': '9733272758', 'email': 'realtorjbalza@gmail.com'}",7405.0,
"37-Oakland-Ter,-Unit-2,-Newark,-NJ-07106","37 Oakland Ter, Unit 2, Newark, NJ 07106",37 Oakland Ter,Unit 2,Newark,NJ,07106,Essex,40.744274,-74.235474,Multi-Family,3.0,1.0,Active,2475,Standard,2025-03-11T00:00:00.000Z,,2025-03-13T00:00:00.000Z,2025-08-04T02:56:11.298Z,147,,1908.0,GardenState,3950263,{'name': 'Akeem Pridgen'},"{'name': 'EXP REALTY, LLC', 'phone': '8662016210', 'email': 'nj.broker@exprealty.net', 'website': 'www.exprealty.com'}",4792.0,
"33-Ashland-Ave,-Apt-Ph-8,-West-Orange,-NJ-07052","33 Ashland Ave, Apt Ph 8, West Orange, NJ 07052",33 Ashland Ave,Apt Ph 8,West Orange,NJ,07052,Essex,40.783394,-74.233879,Single Family,2.0,2.0,Active,4250,Standard,2025-03-07T00:00:00.000Z,,2020-02-14T20:37:19.637Z,2025-08-04T02:56:11.295Z,151,1354.0,2020.0,GardenState,3949678,{'name': 'Jennifer Dalton'},"{'name': ""CHRISTIE'S INT.REAL ESTATE GROUP"", 'phone': '2018997100', 'email': 'res@christiesrennj.com', 'website': 'www.christiesrennj.com'}",914760.0,
"11-Western-Pkwy,-Unit-2,-Irvington,-NJ-07111","11 Western Pkwy, Unit 2, Irvington, NJ 07111",11 Western Pkwy,Unit 2,Irvington,NJ,07111,Essex,40.738071,-74.218056,Apartment,3.0,1.0,Active,2000,Standard,2025-03-14T00:00:00.000Z,,2025-03-15T00:00:00.000Z,2025-08-04T02:56:11.293Z,144,,,,,,,,
"38-S-Walnut-St,-Apt-B1,-East-Orange,-NJ-07018","38 S Walnut St, Apt B1, East Orange, NJ 07018",38 S Walnut St,Apt B1,East Orange,NJ,07018,Essex,40.76133,-74.213913,Multi-Family,2.0,1.0,Active,1850,Standard,2025-02-28T00:00:00.000Z,,2025-03-01T00:00:00.000Z,2025-08-04T02:56:11.292Z,158,,1957.0,GardenState,3948217,"{'name': 'Khalil Hannah', 'phone': '2015328576', 'email': 'khalil.hannah@gmail.com'}","{'name': 'INSPIRED DREAM REAL ESTATE', 'phone': '9733272758', 'email': 'realtorjbalza@gmail.com'}",7405.0,
"69-71-W-Mount-Pleasant-Ave,-Unit-1,-Livingston,-NJ-07039","69-71 W Mount Pleasant Ave, Unit 1, Livingston, NJ 07039",69-71 W Mount Pleasant Ave,Unit 1,Livingston,NJ,07039,Essex,40.795216,-74.31839,Apartment,2.0,1.0,Active,1950,Standard,2025-03-03T00:00:00.000Z,,2025-03-05T00:00:00.000Z,2025-08-04T02:56:11.291Z,155,,,NewJerseyMLS,25006630,"{'name': 'Diana Frankel', 'phone': '9736329299', 'email': 'diana.frankel@coldwellbankermoves.com'}","{'name': 'Coldwell Banker, Upper Montclair', 'phone': '9732332300'}",,
"75-Pine-St,-Unit-3R,-Montclair,-NJ-07042","75 Pine St, Unit 3R, Montclair, NJ 07042",75 Pine St,Unit 3R,Montclair,NJ,07042,Essex,40.810162,-74.208503,Multi-Family,2.0,1.0,Active,2100,Standard,2025-03-18T00:00:00.000Z,,2024-10-24T00:00:00.000Z,2025-08-04T02:56:11.288Z,140,,1930.0,GardenState,3951417,"{'name': 'Renee De Geyter', 'phone': '9737835353', 'email': 'reneerealty@verizon.net', 'website': 'http://www.reneerealty.net'}","{'name': 'RENEE REALTY ENTERPRISES', 'phone': '9739435599', 'email': 'reneerealty@verizon.net', 'website': 'www.reneerealty.net'}",4792.0,
"50-52-Stuyvesant-Ave,-Newark,-NJ-07106","50-52 Stuyvesant Ave, Newark, NJ 07106",50-52 Stuyvesant Ave,,Newark,NJ,07106,Essex,40.744685,-74.229077,Single Family,1.0,1.0,Active,2960,Standard,2025-03-17T00:00:00.000Z,,2025-03-18T00:00:00.000Z,2025-08-04T02:56:11.286Z,141,1889.0,1889.0,NewJerseyMLS,25008396,"{'name': 'Marilou Wong', 'phone': '9737442700', 'email': 'marilou.wong@century21.com'}","{'name': 'CENTURY 21 GEMINI REALTY, UPPER MON', 'phone': '9737442700', 'email': 'wdamstra@aol.com', 'website': 'c21geminihomes.com'}",6970.0,
"33-Ashland-Ave,-Apt-317,-West-Orange,-NJ-07052","33 Ashland Ave, Apt 317, West Orange, NJ 07052",33 Ashland Ave,Apt 317,West Orange,NJ,07052,Essex,40.783394,-74.233879,Single Family,2.0,2.0,Active,3150,Standard,2025-03-07T00:00:00.000Z,,2025-01-30T00:00:00.000Z,2025-08-04T02:56:11.284Z,151,1148.0,2020.0,GardenState,3949675,{'name': 'Jennifer Dalton'},"{'name': ""CHRISTIE'S INT.REAL ESTATE GROUP"", 'phone': '2018997100', 'email': 'res@christiesrennj.com', 'website': 'www.christiesrennj.com'}",914760.0,
"154-Midland-Ave,-Apt-4,-East-Orange,-NJ-07017","154 Midland Ave, Apt 4, East Orange, NJ 07017",154 Midland Ave,Apt 4,East Orange,NJ,07017,Essex,40.78067,-74.213043,Multi-Family,1.0,1.0,Active,1800,Standard,2025-03-07T00:00:00.000Z,,2025-03-08T00:00:00.000Z,2025-08-04T02:56:11.283Z,151,,1930.0,HudsonCounty,250004364,"{'name': 'Jeffrey Kist', 'phone': '2018055715', 'email': 'nj.broker@exprealty.net'}","{'name': 'Exp Realty Llc', 'phone': '8662016210', 'email': 'nj.broker@exprealty.net'}",6098.0,
"12-Wildwood-Ave,-West-Orange,-NJ-07052","12 Wildwood Ave, West Orange, NJ 07052",12 Wildwood Ave,,West Orange,NJ,07052,Essex,40.78044,-74.239887,Single Family,3.0,2.0,Active,4750,Standard,2025-03-18T00:00:00.000Z,,2025-03-19T00:00:00.000Z,2025-08-04T02:56:11.279Z,140,,1975.0,GardenState,3951335,"{'name': 'Jeffrey Brookman', 'phone': '9084222844', 'email': 'jeffreyb1836@gmail.com', 'website': 'century21picciuto.com'}",{'name': 'BROOKMAN REALTY'},19602.0,
"14-Forest-St,-Apt-407,-Montclair,-NJ-07042","14 Forest St, Apt 407, Montclair, NJ 07042",14 Forest St,Apt 407,Montclair,NJ,07042,Essex,40.814362,-74.216309,Condo,1.0,1.0,Active,2200,Standard,2025-03-16T00:00:00.000Z,,2025-05-14T00:00:00.000Z,2025-08-04T02:56:11.278Z,142,696.0,1924.0,GardenState,3951104,{'name': 'Ozan Bars'},"{'name': 'KELLER WILLIAMS TEAM REALTY', 'phone': '9732532800', 'email': 'davidleong@kw.com', 'website': 'kwclifton.com'}",24394.0,
"32-Montclair-Ave,-Apt-1,-Montclair,-NJ-07042","32 Montclair Ave, Apt 1, Montclair, NJ 07042",32 Montclair Ave,Apt 1,Montclair,NJ,07042,Essex,40.818783,-74.208092,Multi-Family,2.0,1.0,Active,2750,Standard,2025-03-18T00:00:00.000Z,,2025-03-19T00:00:00.000Z,2025-08-04T02:56:11.277Z,140,,,GardenState,3951528,"{'name': 'Marylisa Egidio', 'phone': '9732332300', 'email': 'marylisa.egidio@cbrealty.com', 'website': 'http://www.marylisasellshomes.com'}","{'name': 'Coldwell Banker Realty', 'phone': '9732332300', 'email': 'nicholas.gagis@coldwellbankermoves.com', 'website': 'https://www.coldwellbankerhomes.com//nj/montclair/office/montclair-office/oid_1713/'}",11780.0,
"67-Monticello-Ave,-Unit-65,-Newark,-NJ-07106","67 Monticello Ave, Unit 65, Newark, NJ 07106",67 Monticello Ave,Unit 65,Newark,NJ,07106,Essex,40.747986,-74.23509,Multi-Family,1.0,1.0,Active,1600,Standard,2025-03-17T00:00:00.000Z,,2025-02-22T00:00:00.000Z,2025-08-04T02:56:11.273Z,141,,,NewJerseyMLS,25008490,"{'name': 'John A Johnson', 'phone': '9083380639', 'email': 'john@johnjohnson3.com', 'website': 'http://www.johnjohnson3.com'}","{'name': 'Exit Platinum Realty', 'phone': '9737464777'}",,
"198-Underhill-Rd,-South-Orange-Village-Township,-NJ-07079","198 Underhill Rd, South Orange Village Township, NJ 07079",198 Underhill Rd,,South Orange Village Township,NJ,07079,Essex,40.754803,-74.270731,Single Family,6.0,4.0,Active,6500,Standard,2025-03-26T00:00:00.000Z,,2021-11-10T00:58:57.696Z,2025-08-04T02:56:11.271Z,132,3500.0,1960.0,GardenState,3953049,"{'name': 'Vanessa Pollock', 'phone': '9735448484', 'email': 'vanessa@vanessapollock.com;vanesssa@vanessapollock.com', 'website': 'https://www.pollockpropertiesgroup.com/'}","{'name': 'Keller Williams Realty', 'phone': '9082732991', 'email': 'klrw516@kw.com', 'website': 'www.kellerwilliamsnj.com'}",10454.0,
"38-S-Walnut-St,-Apt-2,-East-Orange,-NJ-07018","38 S Walnut St, Apt 2, East Orange, NJ 07018",38 S Walnut St,Apt 2,East Orange,NJ,07018,Essex,40.76133,-74.213913,Multi-Family,1.0,1.0,Active,1650,Standard,2025-02-28T00:00:00.000Z,,2025-03-01T00:00:00.000Z,2025-08-04T02:56:11.270Z,158,,1965.0,GardenState,3948200,"{'name': 'Khalil Hannah', 'phone': '2015328576', 'email': 'khalil.hannah@gmail.com'}","{'name': 'INSPIRED DREAM REAL ESTATE', 'phone': '9733272758', 'email': 'realtorjbalza@gmail.com'}",7405.0,
"161-Sunset-Ave,-Newark,-NJ-07106","161 Sunset Ave, Newark, NJ 07106",161 Sunset Ave,,Newark,NJ,07106,Essex,40.740845,-74.22821,Apartment,1.0,1.0,Active,1200,Standard,2025-02-28T00:00:00.000Z,,2024-02-06T00:00:00.000Z,2025-08-04T02:56:11.269Z,158,,,,,,,,
"46-S-Arlington-Ave,-Apt-7,-East-Orange,-NJ-07018","46 S Arlington Ave, Apt 7, East Orange, NJ 07018",46 S Arlington Ave,Apt 7,East Orange,NJ,07018,Essex,40.75922,-74.211784,Multi-Family,1.0,1.0,Active,1650,Standard,2025-02-28T00:00:00.000Z,,2025-03-01T00:00:00.000Z,2025-08-04T02:56:11.268Z,158,,1957.0,GardenState,3948269,"{'name': 'Khalil Hannah', 'phone': '2015328576', 'email': 'khalil.hannah@gmail.com'}","{'name': 'INSPIRED DREAM REAL ESTATE', 'phone': '9733272758', 'email': 'realtorjbalza@gmail.com'}",5663.0,
"365-Park-Ave,-Apt-512,-East-Orange,-NJ-07017","365 Park Ave, Apt 512, East Orange, NJ 07017",365 Park Ave,Apt 512,East Orange,NJ,07017,Essex,40.767544,-74.20755,Multi-Family,0.0,1.0,Active,1375,Standard,2025-02-28T00:00:00.000Z,,2025-03-01T00:00:00.000Z,2025-08-04T02:56:11.268Z,158,,1957.0,GardenState,3948168,"{'name': 'Khalil Hannah', 'phone': '2015328576', 'email': 'khalil.hannah@gmail.com'}","{'name': 'INSPIRED DREAM REAL ESTATE', 'phone': '9733272758', 'email': 'realtorjbalza@gmail.com'}",23087.0,
"68-71-S-Essex-Ave,-Orange,-NJ-07050","68-71 S Essex Ave, Orange, NJ 07050",68-71 S Essex Ave,,Orange,NJ,07050,Essex,40.770756,-74.231972,Apartment,0.0,1.0,Active,1900,Standard,2025-03-04T00:00:00.000Z,,2025-07-18T00:00:00.000Z,2025-08-04T02:56:11.267Z,154,555.0,,,,,,,
"6-Glenwood-Ave,-Apt-35,-East-Orange,-NJ-07017","6 Glenwood Ave, Apt 35, East Orange, NJ 07017",6 Glenwood Ave,Apt 35,East Orange,NJ,07017,Essex,40.770027,-74.219719,Multi-Family,1.0,1.0,Active,1650,Standard,2025-02-28T00:00:00.000Z,,2025-03-01T00:00:00.000Z,2025-08-04T02:56:11.265Z,158,,1957.0,GardenState,3948266,"{'name': 'Khalil Hannah', 'phone': '2015328576', 'email': 'khalil.hannah@gmail.com'}","{'name': 'INSPIRED DREAM REAL ESTATE', 'phone': '9733272758', 'email': 'realtorjbalza@gmail.com'}",6970.0,
"6-Glenwood-Ave,-Apt-37,-East-Orange,-NJ-07017","6 Glenwood Ave, Apt 37, East Orange, NJ 07017",6 Glenwood Ave,Apt 37,East Orange,NJ,07017,Essex,40.770027,-74.219719,Multi-Family,1.0,1.0,Active,1650,Standard,2025-02-28T00:00:00.000Z,,2025-03-01T00:00:00.000Z,2025-08-04T02:56:11.263Z,158,,1957.0,GardenState,3948220,"{'name': 'Khalil Hannah', 'phone': '2015328576', 'email': 'khalil.hannah@gmail.com'}","{'name': 'INSPIRED DREAM REAL ESTATE', 'phone': '9733272758', 'email': 'realtorjbalza@gmail.com'}",6970.0,
"10-Washington-Ter,-East-Orange,-NJ-07017","10 Washington Ter, East Orange, NJ 07017",10 Washington Ter,,East Orange,NJ,07017,Essex,40.771131,-74.215494,Multi-Family,3.0,1.0,Active,2700,Standard,2025-03-21T00:00:00.000Z,,2020-05-27T01:02:01.673Z,2025-08-04T02:56:11.261Z,137,,1930.0,GardenState,3952148,"{'name': 'Otis Archer', 'phone': '9179717907', 'email': 'oarcherhomes@gmail.com'}","{'name': 'EXP REALTY, LLC', 'phone': '8662016210', 'email': 'nj.broker@exprealty.net', 'website': 'www.exprealty.com'}",4356.0,
"129-Carolina-Ave,-Apt-1R,-Newark,-NJ-07106","129 Carolina Ave, Apt 1R, Newark, NJ 07106",129 Carolina Ave,Apt 1R,Newark,NJ,07106,Essex,40.737957,-74.226318,Multi-Family,2.0,1.0,Active,2100,Standard,2025-03-25T00:00:00.000Z,,2025-03-25T00:00:00.000Z,2025-08-04T02:56:11.259Z,133,,1944.0,GardenState,3952708,"{'name': 'Adeen Woodstock', 'phone': '5163738409', 'email': '2021businesswoman@gmail.com'}","{'name': 'RE/MAX FIRST REALTY II', 'phone': '9086641500', 'email': 'olivier@olivierlouis.com'}",4356.0,
"33-Ashland-Ave,-Apt-Ph-18,-West-Orange,-NJ-07052","33 Ashland Ave, Apt Ph 18, West Orange, NJ 07052",33 Ashland Ave,Apt Ph 18,West Orange,NJ,07052,Essex,40.783394,-74.233879,Single Family,2.0,2.0,Active,3700,Standard,2025-03-07T00:00:00.000Z,,2020-09-04T03:49:05.994Z,2025-08-04T02:56:11.257Z,151,1293.0,2020.0,GardenState,3949598,{'name': 'Jennifer Dalton'},"{'name': ""CHRISTIE'S INT.REAL ESTATE GROUP"", 'phone': '2018997100', 'email': 'res@christiesrennj.com', 'website': 'www.christiesrennj.com'}",914760.0,
"10-14-Noll-Pl,-Unit-3,-Newark,-NJ-07106","10-14 Noll Pl, Unit 3, Newark, NJ 07106",10-14 Noll Pl,Unit 3,Newark,NJ,07106,Essex,40.742275,-74.233955,Multi-Family,1.0,1.0,Active,1750,Standard,2025-03-04T00:00:00.000Z,,2025-03-05T00:00:00.000Z,2025-08-04T02:56:11.256Z,154,,,NewJerseyMLS,25006939,"{'name': 'Leia Yoon', 'phone': '9737292700'}","{'name': 'EXP REALTY, LLC', 'phone': '8662016210', 'email': 'nj.broker@exprealty.net', 'website': 'www.exprealty.com'}",,
"66-Telford-St,-Unit-2,-Newark,-NJ-07106","66 Telford St, Unit 2, Newark, NJ 07106",66 Telford St,Unit 2,Newark,NJ,07106,Essex,40.748512,-74.228996,Apartment,3.0,2.0,Active,2799,Standard,2025-03-06T00:00:00.000Z,,2025-03-07T00:00:00.000Z,2025-08-04T02:56:11.255Z,152,2500.0,,,,,,,
"150-Hillside-Ter,-Unit-3,-Irvington,-NJ-07111","150 Hillside Ter, Unit 3, Irvington, NJ 07111",150 Hillside Ter,Unit 3,Irvington,NJ,07111,Essex,40.730949,-74.237259,Multi-Family,1.0,1.0,Active,1700,Standard,2025-03-06T00:00:00.000Z,,2025-03-07T00:00:00.000Z,2025-08-04T02:56:11.255Z,152,,1939.0,GardenState,3949405,"{'name': 'Omar Fernandez', 'phone': '2014454300'}","{'name': 'EXP REALTY, LLC', 'phone': '8662016210', 'email': 'nj.broker@exprealty.net', 'website': 'www.exprealty.com'}",4792.0,
"10C-N-Ridgewood-Rd,-Unit-105,-South-Orange-Village-Township,-NJ-07079","10C N Ridgewood Rd, Unit 105, South Orange Village Township, NJ 07079",10C N Ridgewood Rd,Unit 105,South Orange Village Township,NJ,07079,Essex,40.747742,-74.262917,Single Family,2.0,2.0,Active,3200,Standard,2025-03-29T00:00:00.000Z,,2025-06-27T00:00:00.000Z,2025-08-04T02:56:11.252Z,129,1169.0,1960.0,GardenState,3953696,"{'name': 'Christopher L. Bruscino', 'phone': '9737297141', 'email': 'chrisbruscino@hotmail.com'}","{'name': 'REALTY EXECUTIVES EXCEPTIONAL', 'phone': '9737297141', 'email': 'clientcare@realtyexecutives.com', 'website': 'https://www.rexexceptional.com/'}",33977.0,
"41-Columbia-Ave,-Apt-2,-Newark,-NJ-07106","41 Columbia Ave, Apt 2, Newark, NJ 07106",41 Columbia Ave,Apt 2,Newark,NJ,07106,Essex,40.743687,-74.21962,Multi-Family,4.0,1.0,Active,2450,Standard,2025-04-09T00:00:00.000Z,,2024-10-16T00:00:00.000Z,2025-08-04T02:54:08.306Z,118,,1926.0,GardenState,3955888,"{'name': 'Corey Jones', 'phone': '9083371541', 'email': 'cjones@betterrealestateco.com', 'website': 'http://njnewhomesearch.com'}","{'name': 'Coldwell Banker Realty', 'phone': '9733788300', 'email': 'michael.pennisi@cbmoves.com', 'website': 'https://www.coldwellbankerhomes.com//nj/maplewood/office/maplewood-office/oid_1578/'}",3920.0,
"100-Glenwood-Ave,-Unit-1,-East-Orange,-NJ-07017","100 Glenwood Ave, Unit 1, East Orange, NJ 07017",100 Glenwood Ave,Unit 1,East Orange,NJ,07017,Essex,40.773094,-74.216759,Multi-Family,2.0,2.0,Active,3200,Standard,2025-04-15T00:00:00.000Z,,2024-10-05T00:00:00.000Z,2025-08-04T02:54:08.305Z,112,,2024.0,GardenState,3956809,{'name': 'Dave Stephenson'},"{'name': 'Weichert, Realtors - Westfield', 'phone': '8008391295', 'email': 'rdclead@wlninc.com', 'website': 'http://weichert.com/office/office.asp'}",12197.0,
"511-Scotland-Rd,-South-Orange-Village-Township,-NJ-07079","511 Scotland Rd, South Orange Village Township, NJ 07079",511 Scotland Rd,,South Orange Village Township,NJ,07079,Essex,40.755069,-74.25079,Single Family,3.0,2.5,Active,5500,Standard,2025-04-11T00:00:00.000Z,,2019-07-14T21:35:40.183Z,2025-08-04T02:54:08.303Z,116,1688.0,1970.0,GardenState,3956449,"{'name': 'Stephanie Mallios', 'phone': '2014041972', 'email': 'stephanie.mallios@compass.com', 'website': 'http://www.stephaniemallios.com/'}","{'name': 'COMPASS', 'phone': '9733106816', 'email': 'mdibenedetto4@gmail.com'}",8712.0,
"59-Grand-Ave,-Unit-1R,-Newark,-NJ-07106","59 Grand Ave, Unit 1R, Newark, NJ 07106",59 Grand Ave,Unit 1R,Newark,NJ,07106,Essex,40.747196,-74.220032,Multi-Family,2.0,1.0,Active,1900,Standard,2025-04-12T00:00:00.000Z,,2025-04-13T00:00:00.000Z,2025-08-04T02:54:08.302Z,115,,1920.0,GardenState,3956565,"{'name': 'Nyisha Clark', 'phone': '8622551723', 'email': 'nclark@weichert.com', 'website': 'https://nyisha-clark.weichert.com'}","{'name': 'WEICHERT REALTORS', 'phone': '8008391295', 'email': 'rdclead@wlninc.com'}",3920.0,
"168-174-Washington-St,-Bloomfield,-NJ-07003","168-174 Washington St, Bloomfield, NJ 07003",168-174 Washington St,,Bloomfield,NJ,07003,Essex,40.792641,-74.203354,Apartment,0.0,1.0,Active,1600,Standard,2025-04-12T00:00:00.000Z,,2025-07-18T00:00:00.000Z,2025-08-04T02:54:08.300Z,115,,,,,,,,
"100-Evergreen-Pl,-Apt-3F,-East-Orange,-NJ-07018","100 Evergreen Pl, Apt 3F, East Orange, NJ 07018",100 Evergreen Pl,Apt 3F,East Orange,NJ,07018,Essex,40.762333,-74.221489,Multi-Family,0.0,1.0,Active,1700,Standard,2025-04-14T00:00:00.000Z,,2025-04-15T00:00:00.000Z,2025-08-04T02:54:08.296Z,113,581.0,1950.0,GardenState,3956746,"{'name': 'Matthew Errichiello', 'phone': '2015928900'}","{'name': ""Prominent Properties Sotheby's International Realty"", 'phone': '2015858080', 'email': 'charles.oppler@prominentproperties.com', 'website': 'http://www.prominentproperties.com/'}",,
"99-Pine-St,-Montclair,-NJ-07042","99 Pine St, Montclair, NJ 07042",99 Pine St,,Montclair,NJ,07042,Essex,40.811344,-74.207649,Apartment,1.0,1.0,Active,1895,Standard,2025-04-12T00:00:00.000Z,,2022-12-27T01:09:39.719Z,2025-08-04T02:54:08.294Z,115,600.0,,,,,,,
"78-Crawford-St,-Unit-2,-East-Orange,-NJ-07018","78 Crawford St, Unit 2, East Orange, NJ 07018",78 Crawford St,Unit 2,East Orange,NJ,07018,Essex,40.753162,-74.226929,Multi-Family,2.0,1.0,Active,2500,Standard,2025-03-29T00:00:00.000Z,,2022-01-04T01:03:01.218Z,2025-08-04T02:54:08.209Z,129,,1925.0,GardenState,3953716,{'name': 'Syed Ali'},"{'name': 'Halo Realty', 'phone': '8482291810', 'email': 'paulvsellshomes@optonline.net', 'website': 'http://www.halohomes.us'}",6098.0,
"146-Tierney-Dr,-Cedar-Grove,-NJ-07009","146 Tierney Dr, Cedar Grove, NJ 07009",146 Tierney Dr,,Cedar Grove,NJ,07009,Essex,40.843328,-74.221425,Apartment,1.0,1.0,Active,2100,Standard,2025-03-31T00:00:00.000Z,,2020-11-16T00:20:41.421Z,2025-08-04T02:54:08.208Z,127,750.0,1964.0,,,,,,
"95-Central-Ave,-Unit-2,-City-Of-Orange-Township,-NJ-07050","95 Central Ave, Unit 2, City Of Orange Township, NJ 07050",95 Central Ave,Unit 2,City Of Orange Township,NJ,07050,Essex,40.763802,-74.227943,Multi-Family,2.0,1.0,Active,2200,Standard,2025-04-02T00:00:00.000Z,,2025-04-03T00:00:00.000Z,2025-08-04T02:54:08.202Z,125,,1906.0,GardenState,3954290,"{'name': 'Tereze Hanna-zavala', 'phone': '9732281050', 'email': 'c21terezeh@msn.com'}","{'name': 'CENTURY 21 Cedarcrest Realty, Inc.', 'phone': '9732281050', 'email': 'johnsassc21re@gmail.com', 'website': 'http://www.century21cedarcrest.com/'}",3049.0,
"95-Central-Ave,-Unit-3,-City-Of-Orange-Township,-NJ-07050","95 Central Ave, Unit 3, City Of Orange Township, NJ 07050",95 Central Ave,Unit 3,City Of Orange Township,NJ,07050,Essex,40.763802,-74.227943,Multi-Family,1.0,1.0,Active,1800,Standard,2025-04-02T00:00:00.000Z,,2025-04-03T00:00:00.000Z,2025-08-04T02:54:08.202Z,125,,1906.0,GardenState,3954310,"{'name': 'Tereze Hanna-zavala', 'phone': '9732281050', 'email': 'c21terezeh@msn.com'}","{'name': 'CENTURY 21 Cedarcrest Realty, Inc.', 'phone': '9732281050', 'email': 'johnsassc21re@gmail.com', 'website': 'http://www.century21cedarcrest.com/'}",3049.0,
"51-Becker-Ter,-Apt-3,-Irvington,-NJ-07111","51 Becker Ter, Apt 3, Irvington, NJ 07111",51 Becker Ter,Apt 3,Irvington,NJ,07111,Essex,40.725639,-74.248138,Multi-Family,1.0,1.0,Active,1550,Standard,2025-04-02T00:00:00.000Z,,2024-08-16T00:00:00.000Z,2025-08-04T02:54:08.200Z,125,,1918.0,GardenState,3954383,"{'name': 'Ashley Gibbs', 'phone': '5517510163', 'email': 'a.gibbs1@yahoo.com'}","{'name': 'EXP REALTY, LLC', 'phone': '8662016210', 'email': 'nj.broker@exprealty.net', 'website': 'www.exprealty.com'}",3049.0,
"378-Millburn-Ave,-Unit-303,-Millburn,-NJ-07041","378 Millburn Ave, Unit 303, Millburn, NJ 07041",378 Millburn Ave,Unit 303,Millburn,NJ,07041,Essex,40.723133,-74.30941,Single Family,2.0,2.0,Active,5500,Standard,2025-04-02T00:00:00.000Z,,2025-05-10T00:00:00.000Z,2025-08-04T02:54:08.199Z,125,1287.0,2024.0,GardenState,3954513,"{'name': 'Joanna Parker-lentz', 'phone': '9736994388', 'email': 'joanna.parkerlentz@cbrealty.com', 'website': 'http://www.jodiandjoanna.com/'}","{'name': 'Coldwell Banker Realty', 'phone': '9733765200', 'email': 'michael.pennisi@cbmoves.com', 'website': 'https://www.coldwellbankerhomes.com//nj/short-hills/office/short-hills-office/oid_1688/'}",6970.0,
"1701-Springfield-Ave,-Maplewood,-NJ-07040","1701 Springfield Ave, Maplewood, NJ 07040",1701 Springfield Ave,,Maplewood,NJ,07040,Essex,40.721745,-74.261383,Apartment,3.0,2.0,Active,3100,Standard,2025-04-03T00:00:00.000Z,,2019-11-07T08:09:26.729Z,2025-08-04T02:54:08.194Z,124,1100.0,2008.0,GardenState,3954778,{'name': 'Brian Silbert'},"{'name': 'SILBERT REALTY & MANAGEMENT CO.', 'phone': '9086046900'}",20038.0,
"98-Burnett-Ave,-Maplewood,-NJ-07040","98 Burnett Ave, Maplewood, NJ 07040",98 Burnett Ave,,Maplewood,NJ,07040,Essex,40.719565,-74.260765,Apartment,2.0,2.0,Active,3200,Standard,2025-04-03T00:00:00.000Z,,2019-11-07T08:07:32.285Z,2025-08-04T02:54:08.193Z,124,1105.0,2010.0,GardenState,3954781,{'name': 'Brian Silbert'},"{'name': 'SILBERT REALTY & MANAGEMENT CO.', 'phone': '9086046900'}",17860.0,
"59-Grand-Ave,-Unit-2L,-Newark,-NJ-07106","59 Grand Ave, Unit 2L, Newark, NJ 07106",59 Grand Ave,Unit 2L,Newark,NJ,07106,Essex,40.747196,-74.220032,Multi-Family,2.0,1.0,Active,1900,Standard,2025-04-04T00:00:00.000Z,,2025-04-10T00:00:00.000Z,2025-08-04T02:54:08.187Z,123,,1920.0,GardenState,3955102,"{'name': 'Nyisha Clark', 'phone': '8622551723', 'email': 'nclark@weichert.com', 'website': 'https://nyisha-clark.weichert.com'}","{'name': 'WEICHERT REALTORS', 'phone': '8008391295', 'email': 'rdclead@wlninc.com'}",3920.0,
"22-Seymour-St,-Montclair,-NJ-07042","22 Seymour St, Montclair, NJ 07042",22 Seymour St,,Montclair,NJ,07042,Essex,40.811291,-74.216713,Apartment,2.0,1.0,Active,2700,Standard,2025-04-05T00:00:00.000Z,,2025-04-06T00:00:00.000Z,2025-08-04T02:54:08.187Z,122,,,NewJerseyMLS,25011005,"{'name': 'James Stefanile', 'phone': '9737694041', 'email': 'james.stefanile@foxroach.com', 'website': 'http://www.bhhsnj.com/james stefanile'}","{'name': 'Berkshire Hathaway Fox & Roach', 'phone': '9737445544'}",,
"35-37-Main-St,-Unit-2A,-Millburn,-NJ-07041","35-37 Main St, Unit 2A, Millburn, NJ 07041",35-37 Main St,Unit 2A,Millburn,NJ,07041,Essex,40.724396,-74.307678,Single Family,2.0,2.0,Active,4450,Standard,2025-04-07T00:00:00.000Z,,2025-04-11T00:00:00.000Z,2025-08-04T02:54:08.185Z,120,918.0,1910.0,GardenState,3955435,"{'name': 'Stephanie Mallios', 'phone': '2014041972', 'email': 'stephanie.mallios@compass.com', 'website': 'http://www.stephaniemallios.com/'}","{'name': 'COMPASS', 'phone': '9733106816', 'email': 'mdibenedetto4@gmail.com'}",17424.0,
"38-Seaman-Rd,-West-Orange,-NJ-07052","38 Seaman Rd, West Orange, NJ 07052",38 Seaman Rd,,West Orange,NJ,07052,Essex,40.813136,-74.248487,Single Family,4.0,2.0,Active,4300,Standard,2025-04-23T00:00:00.000Z,,2024-07-10T00:00:00.000Z,2025-08-04T02:54:08.180Z,104,,1950.0,GardenState,3958513,"{'name': 'Frederico Viegas', 'phone': '9733425601', 'email': 'info@skyrealtynj.com', 'website': 'http://www.skyrealtynj.net'}","{'name': 'Sky Realty Associates LLC', 'phone': '9733448880', 'email': 'sales@skyrealtynj.com'}",5227.0,
"658-Valley-Rd,-Montclair,-NJ-07043","658 Valley Rd, Montclair, NJ 07043",658 Valley Rd,,Montclair,NJ,07043,Essex,40.84448,-74.20755,Apartment,1.0,1.0,Active,2400,Standard,2025-04-22T00:00:00.000Z,,2019-12-19T14:13:07.436Z,2025-08-04T02:54:08.178Z,105,568.0,,,,,,,
"299-S-19th-St,-Newark,-NJ-07103","299 S 19th St, Newark, NJ 07103",299 S 19th St,,Newark,NJ,07103,Essex,40.746667,-74.206912,Multi-Family,2.0,1.0,Active,2150,Standard,2025-04-17T00:00:00.000Z,,2024-12-27T00:00:00.000Z,2025-08-04T02:54:08.176Z,110,900.0,2002.0,GardenState,3957398,"{'name': 'Krystle Morrissette', 'phone': '2013284220', 'email': 'krystylehomes@gmail.com'}","{'name': 'CORCORAN SAWYER SMITH', 'phone': '2016538000'}",2614.0,
"5-Woodland-Ave,-Apt-2,-Montclair,-NJ-07042","5 Woodland Ave, Apt 2, Montclair, NJ 07042",5 Woodland Ave,Apt 2,Montclair,NJ,07042,Essex,40.80381,-74.213158,Multi-Family,2.0,1.0,Active,2550,Standard,2025-04-17T00:00:00.000Z,,2024-11-25T00:00:00.000Z,2025-08-04T02:54:08.175Z,110,,,NewJerseyMLS,25012609,"{'name': 'Marc Imbimbo', 'phone': '9733341416', 'email': 'imbimbo.marc@gmail.com'}","{'name': 'Coldwell Banker Realty', 'phone': '2014615000', 'email': 'joe.tamburosr@coldwellbankermoves.com', 'website': 'https://www.coldwellbankerhomes.com//nj/fort-lee/office/fort-lee-office/oid_1507/'}",,
"530-Park-Ave,-Orange,-NJ-07050","530 Park Ave, Orange, NJ 07050",530 Park Ave,,Orange,NJ,07050,Essex,40.779453,-74.234344,Apartment,1.0,1.0,Active,1595,Standard,2025-04-30T00:00:00.000Z,,2025-07-18T00:00:00.000Z,2025-08-04T02:54:08.174Z,97,,,,,,,,
"95-Washington-St,-East-Orange,-NJ-07017","95 Washington St, East Orange, NJ 07017",95 Washington St,,East Orange,NJ,07017,Essex,40.773354,-74.220863,Apartment,0.0,1.0,Active,1190,Standard,2025-04-30T00:00:00.000Z,,2025-07-18T00:00:00.000Z,2025-08-04T02:54:08.173Z,97,,,,,,,,
"30-N-Mountain-Ave,-Montclair,-NJ-07042","30 N Mountain Ave, Montclair, NJ 07042",30 N Mountain Ave,,Montclair,NJ,07042,Essex,40.821586,-74.223754,Single Family,7.0,5.5,Active,17900,Standard,2025-04-17T00:00:00.000Z,,2024-11-19T00:00:00.000Z,2025-08-04T02:54:08.172Z,110,,1896.0,GardenState,3957411,"{'name': 'Christine Lane', 'phone': '9735093500', 'email': 'chris@laneteam.com', 'website': 'http://www.laneteam.com'}","{'name': 'COMPASS NEW JERSEY LLC', 'phone': '9733107360'}",85813.0,
"46-Olive-St,-Unit-1ST,-Bloomfield,-NJ-07003","46 Olive St, Unit 1ST, Bloomfield, NJ 07003",46 Olive St,Unit 1ST,Bloomfield,NJ,07003,Essex,40.78281,-74.203613,Multi-Family,3.0,1.0,Active,2400,Standard,2025-04-22T00:00:00.000Z,,2025-04-23T00:00:00.000Z,2025-08-04T02:54:08.171Z,105,,,NewJerseyMLS,25013018,"{'name': 'Andres Ospina', 'phone': '2013334676', 'email': 'premiervillagroup@gmail.com', 'website': 'http://premiervillagroup.com'}","{'name': 'Keller Williams Park Views', 'phone': '2019390050', 'email': 'rokeith@kw.com'}",3584.0,
"415-Dodd-St,-Unit-9,-East-Orange,-NJ-07017","415 Dodd St, Unit 9, East Orange, NJ 07017",415 Dodd St,Unit 9,East Orange,NJ,07017,Essex,40.782058,-74.219428,Condo,0.0,1.0,Active,1500,Standard,2025-04-18T00:00:00.000Z,,2023-01-13T01:09:57.850Z,2025-08-04T02:54:08.169Z,109,,1960.0,GardenState,3957498,"{'name': 'Lionel Cruz', 'phone': '2016300025', 'email': 'lionel@nexthomeprime.com', 'website': 'http://www.nexthomeprime.com'}","{'name': 'NEXTHOME PRIME', 'phone': '2016300025'}",3920.0,
"19-Elmwood-Ave,-West-Orange,-NJ-07052","19 Elmwood Ave, West Orange, NJ 07052",19 Elmwood Ave,,West Orange,NJ,07052,Essex,40.796009,-74.270055,Single Family,3.0,3.0,Active,4700,Standard,2025-04-19T00:00:00.000Z,,2025-04-20T00:00:00.000Z,2025-08-04T02:54:08.166Z,108,,1930.0,GardenState,3957635,"{'name': 'Nauana Burigo', 'phone': '9732342317', 'email': 'nauanab@gmail.com', 'website': 'nauana.previewhomes.com'}","{'name': 'Coldwell Banker Realty', 'phone': '9732630400', 'email': 'john.barr@coldwellbankermoves.com', 'website': 'https://www.coldwellbankerhomes.com//nj/mountain-lakes/office/mountain-lakes-office/oid_1602/'}",4792.0,
"28-W-3rd-St,-Apt-1431,-South-Orange,-NJ-07079","28 W 3rd St, Apt 1431, South Orange, NJ 07079",28 W 3rd St,Apt 1431,South Orange,NJ,07079,Essex,40.744118,-74.26355,Apartment,1.0,1.0,Active,3357,Standard,2025-05-01T00:00:00.000Z,,2025-05-02T00:00:00.000Z,2025-08-04T02:54:08.157Z,96,896.0,,Funnel,M4643945-12054,"{'name': 'Sofi Leasing', 'phone': '9738741217'}",{'name': 'The Management Company'},,
"16-Smith-St,-Newark,-NJ-07106","16 Smith St, Newark, NJ 07106",16 Smith St,,Newark,NJ,07106,Essex,40.751077,-74.228119,Multi-Family,2.0,1.0,Active,1875,Standard,2025-04-22T00:00:00.000Z,,2025-04-23T00:00:00.000Z,2025-08-04T02:54:08.155Z,105,,1960.0,GardenState,3958102,"{'name': 'Lasanda Sheppy', 'phone': '9737791900', 'email': 'lsheppy@weichert.com'}","{'name': 'Weichert, Realtors - Upper Montclair', 'phone': '8008391295', 'email': 'rdclead@wlninc.com'}",2614.0,
"46-Olive-St,-Bloomfield,-NJ-07003","46 Olive St, Bloomfield, NJ 07003",46 Olive St,,Bloomfield,NJ,07003,Essex,40.782818,-74.203594,Multi-Family,3.0,1.0,Active,2400,Standard,2025-04-22T00:00:00.000Z,,2025-04-23T00:00:00.000Z,2025-08-04T02:54:08.155Z,105,,1919.0,GardenState,3958133,"{'name': 'Andres Ospina', 'phone': '2013334676', 'email': 'premiervillagroup@gmail.com', 'website': 'http://premiervillagroup.com'}","{'name': 'Keller Williams Park Views', 'phone': '2019390050', 'email': 'rokeith@kw.com'}",3485.0,
"56-Sunnyside-Ter,-East-Orange,-NJ-07018","56 Sunnyside Ter, East Orange, NJ 07018",56 Sunnyside Ter,,East Orange,NJ,07018,Essex,40.747166,-74.224078,Multi-Family,3.0,1.0,Active,2500,Standard,2025-04-23T00:00:00.000Z,,2025-04-24T00:00:00.000Z,2025-08-04T02:54:08.151Z,104,,1930.0,GardenState,3958474,"{'name': 'Courtney R Abrams', 'phone': '8137284331', 'email': 'realtorbydesign.court@gmail.com', 'website': 'https://courtney-abrams.weichert.com/'}","{'name': 'Weichert, Realtors - Short Hills', 'phone': '8008391295', 'email': 'rdclead@wlninc.com', 'website': 'http://www.weichert.com/search/offices/office.aspx'}",3920.0,
"168-S-Clinton-St,-Unit-C4,-East-Orange,-NJ-07018","168 S Clinton St, Unit C4, East Orange, NJ 07018",168 S Clinton St,Unit C4,East Orange,NJ,07018,Essex,40.759521,-74.219551,Apartment,1.0,1.0,Active,1600,Standard,2025-04-22T00:00:00.000Z,,2025-04-23T00:00:00.000Z,2025-08-04T02:54:08.150Z,105,,,,,,,,
"168-S-Clinton-St,-Unit-A7,-East-Orange,-NJ-07018","168 S Clinton St, Unit A7, East Orange, NJ 07018",168 S Clinton St,Unit A7,East Orange,NJ,07018,Essex,40.759521,-74.219551,Apartment,1.0,1.0,Active,1600,Standard,2025-04-22T00:00:00.000Z,,2025-04-23T00:00:00.000Z,2025-08-04T02:54:08.147Z,105,,,,,,,,
"806-Morris-Tpke,-Apt-3J6,-Millburn,-NJ-07078","806 Morris Tpke, Apt 3J6, Millburn, NJ 07078",806 Morris Tpke,Apt 3J6,Millburn,NJ,07078,Essex,40.724586,-74.336441,Multi-Family,1.0,1.0,Active,2193,Standard,2025-04-28T00:00:00.000Z,,2025-04-29T00:00:00.000Z,2025-08-04T02:54:08.141Z,99,819.0,1960.0,GardenState,3959454,"{'name': 'Catalda Cocuzza', 'phone': '9733788300', 'email': 'catalda.cocuzza@cbrealty.com', 'website': 'https://www.coldwellbankerhomes.com/nj/maplewood/agent/catalda-cocuzza/aid_229144/'}","{'name': 'Coldwell Banker Realty', 'phone': '9733788300', 'email': 'michael.pennisi@cbmoves.com', 'website': 'https://www.coldwellbankerhomes.com//nj/maplewood/office/maplewood-office/oid_1578/'}",411206.0,
"806-Morris-Tpke,-Apt-4G7,-Millburn,-NJ-07078","806 Morris Tpke, Apt 4G7, Millburn, NJ 07078",806 Morris Tpke,Apt 4G7,Millburn,NJ,07078,Essex,40.724586,-74.336441,Apartment,1.0,1.0,Active,2163,Standard,2025-04-28T00:00:00.000Z,,2025-04-29T00:00:00.000Z,2025-08-04T02:54:08.139Z,99,819.0,1960.0,GardenState,3959439,"{'name': 'Catalda Cocuzza', 'phone': '9733788300', 'email': 'catalda.cocuzza@cbrealty.com', 'website': 'https://www.coldwellbankerhomes.com/nj/maplewood/agent/catalda-cocuzza/aid_229144/'}","{'name': 'Coldwell Banker Realty', 'phone': '9733788300', 'email': 'michael.pennisi@cbmoves.com', 'website': 'https://www.coldwellbankerhomes.com//nj/maplewood/office/maplewood-office/oid_1578/'}",411206.0,
"7-Wheeler-St,-West-Orange,-NJ-07052","7 Wheeler St, West Orange, NJ 07052",7 Wheeler St,,West Orange,NJ,07052,Essex,40.777226,-74.24119,Multi-Family,4.0,1.0,Active,3200,Standard,2025-04-29T00:00:00.000Z,,2025-04-30T00:00:00.000Z,2025-08-04T02:54:08.136Z,98,,1945.0,GardenState,3959547,"{'name': 'Mahmoud Ijbara', 'phone': '9733332959', 'email': 'mahmoud@gildrealty.com', 'website': 'http://www.gildrealty.com/'}","{'name': 'GILD REALTY', 'phone': '9733332959'}",4500.0,
"806-Morris-Tpke,-Apt-2D1,-Millburn,-NJ-07078","806 Morris Tpke, Apt 2D1, Millburn, NJ 07078",806 Morris Tpke,Apt 2D1,Millburn,NJ,07078,Essex,40.724586,-74.336441,Multi-Family,1.0,1.0,Active,2338,Standard,2025-04-28T00:00:00.000Z,,2022-10-06T02:04:44.146Z,2025-08-04T02:54:08.135Z,99,819.0,1960.0,GardenState,3959453,"{'name': 'Catalda Cocuzza', 'phone': '9733788300', 'email': 'catalda.cocuzza@cbrealty.com', 'website': 'https://www.coldwellbankerhomes.com/nj/maplewood/agent/catalda-cocuzza/aid_229144/'}","{'name': 'Coldwell Banker Realty', 'phone': '9733788300', 'email': 'michael.pennisi@cbmoves.com', 'website': 'https://www.coldwellbankerhomes.com//nj/maplewood/office/maplewood-office/oid_1578/'}",411206.0,
"547-Valley-Rd,-Ste-1,-Montclair,-NJ-07043","547 Valley Rd, Ste 1, Montclair, NJ 07043",547 Valley Rd,Ste 1,Montclair,NJ,07043,Essex,40.838688,-74.207222,Multi-Family,3.0,2.0,Active,4500,Standard,2025-04-28T00:00:00.000Z,,2024-10-15T00:00:00.000Z,2025-08-04T02:54:08.134Z,99,1750.0,1974.0,NewJerseyMLS,25013854,"{'name': 'Roman Drukarov', 'phone': '9734543218', 'email': 'roman.drukarov@foxroach.com'}","{'name': 'BHHS Fox & Roach Livingston Sales Office', 'phone': '9739926363', 'email': 'clientservices@foxroach.com', 'website': 'https://livingston.foxroach.com'}",4242.0,
"520-Patricia-Ct,-South-Orange-Village-Township,-NJ-07079","520 Patricia Ct, South Orange Village Township, NJ 07079",520 Patricia Ct,,South Orange Village Township,NJ,07079,Essex,40.750324,-74.23862,Single Family,4.0,2.5,Active,5900,Standard,2025-04-23T00:00:00.000Z,,2019-12-02T01:00:35.599Z,2025-08-04T02:54:08.128Z,104,,1988.0,GardenState,3958519,"{'name': 'Lara Liquori', 'phone': '9733825386', 'email': 'lara.liquori@coldwellbankermoves.com', 'website': 'https://www.athomewithlara.com/'}","{'name': 'COMPASS', 'phone': '9733106816', 'email': 'mdibenedetto4@gmail.com'}",10019.0,
"271-Millburn-Ave-Unit-A,-Millburn,-NJ-07041","271 Millburn Ave Unit A, Millburn, NJ 07041",271 Millburn Ave Unit A,,Millburn,NJ,07041,Essex,40.724674,-74.302353,Multi-Family,2.0,1.0,Active,3750,Standard,2025-05-01T00:00:00.000Z,,2025-05-02T00:00:00.000Z,2025-08-04T02:54:08.127Z,96,,2021.0,GardenState,3960247,"{'name': 'Neil Steiger', 'phone': '9733760033', 'email': 'nsteiger@kw.com', 'website': 'http://x266797.yourkwagent.com'}","{'name': 'Keller Williams Realty', 'phone': '9082732991', 'email': 'klrw516@kw.com', 'website': 'www.kellerwilliamsnj.com'}",14375.0,
"79-Washington-St,-East-Orange,-NJ-07017","79 Washington St, East Orange, NJ 07017",79 Washington St,,East Orange,NJ,07017,Essex,40.772537,-74.220352,Apartment,0.0,1.0,Active,965,Standard,2025-04-30T00:00:00.000Z,,2025-07-18T00:00:00.000Z,2025-08-04T02:54:08.125Z,97,,,,,,,,
"290-Madison-Ave,-Irvington,-NJ-07111","290 Madison Ave, Irvington, NJ 07111",290 Madison Ave,,Irvington,NJ,07111,Essex,40.733952,-74.233505,Apartment,0.0,1.0,Active,1175,Standard,2025-04-30T00:00:00.000Z,,2025-07-18T00:00:00.000Z,2025-08-04T02:54:08.122Z,97,,,,,,,,
"145-Vermont-Ave,-Unit-2,-Newark,-NJ-07106","145 Vermont Ave, Unit 2, Newark, NJ 07106",145 Vermont Ave,Unit 2,Newark,NJ,07106,Essex,40.740208,-74.222878,Apartment,4.0,1.5,Active,2350,Standard,2025-05-01T00:00:00.000Z,,2025-05-02T00:00:00.000Z,2025-08-04T02:54:08.120Z,96,1199.0,,,,,,,
"410-Prospect-St,-East-Orange,-NJ-07017","410 Prospect St, East Orange, NJ 07017",410 Prospect St,,East Orange,NJ,07017,Essex,40.77755,-74.206223,Apartment,1.0,1.0,Active,1530,Standard,2025-04-30T00:00:00.000Z,,2025-07-18T00:00:00.000Z,2025-08-04T02:54:08.119Z,97,,,,,,,,
"53-Mission-St,-Unit-1,-Montclair,-NJ-07042","53 Mission St, Unit 1, Montclair, NJ 07042",53 Mission St,Unit 1,Montclair,NJ,07042,Essex,40.806549,-74.212112,Multi-Family,3.0,1.0,Active,2550,Standard,2025-05-03T00:00:00.000Z,,2025-05-03T00:00:00.000Z,2025-08-04T02:54:08.119Z,94,,1892.0,GardenState,3960707,"{'name': 'Estrella Rosenberg', 'phone': '2016868134'}","{'name': 'COMPASS NEW JERSEY LLC', 'phone': '5512123870'}",2950.0,
"85-Washington-St,-East-Orange,-NJ-07017","85 Washington St, East Orange, NJ 07017",85 Washington St,,East Orange,NJ,07017,Essex,40.772984,-74.220581,Apartment,1.0,1.0,Active,1560,Standard,2025-04-30T00:00:00.000Z,,2025-07-18T00:00:00.000Z,2025-08-04T02:54:08.118Z,97,,,,,,,,
"60-E-Park-St,-East-Orange,-NJ-07017","60 E Park St, East Orange, NJ 07017",60 E Park St,,East Orange,NJ,07017,Essex,40.776421,-74.219917,Apartment,1.0,1.0,Active,1565,Standard,2025-04-30T00:00:00.000Z,,2025-07-18T00:00:00.000Z,2025-08-04T02:54:08.117Z,97,,,,,,,,
"915-Chapman-Pl,-Irvington,-NJ-07111","915 Chapman Pl, Irvington, NJ 07111",915 Chapman Pl,,Irvington,NJ,07111,Essex,40.728952970091,-74.239777969477,Apartment,1.0,1.0,Active,1295,Standard,2025-05-02T00:00:00.000Z,,2025-07-18T00:00:00.000Z,2025-08-04T02:54:08.106Z,95,,,,,,,,
"249-S-Burnett-St,-Unit-1,-East-Orange,-NJ-07018","249 S Burnett St, Unit 1, East Orange, NJ 07018",249 S Burnett St,Unit 1,East Orange,NJ,07018,Essex,40.756447,-74.220459,Multi-Family,3.0,1.0,Active,2675,Standard,2025-05-02T00:00:00.000Z,,2022-06-11T01:16:12.287Z,2025-08-04T02:54:08.105Z,95,1100.0,1925.0,GardenState,3960556,"{'name': 'Cynthia Lubin', 'phone': '2016598600', 'email': 'cynthia.lubin@gmail.com'}","{'name': 'COMPASS NEW JERSEY LLC', 'phone': '9733107360'}",4792.0,
"121-Park-St,-Unit-A,-Montclair,-NJ-07042","121 Park St, Unit A, Montclair, NJ 07042",121 Park St,Unit A,Montclair,NJ,07042,Essex,40.821869,-74.212423,Multi-Family,6.0,4.0,Active,5400,Standard,2025-05-01T00:00:00.000Z,,2019-05-27T10:01:15.550Z,2025-08-04T02:54:08.104Z,96,,1902.0,GardenState,3960056,"{'name': 'Gregg Nicholas', 'phone': '9736320183', 'email': 'gregg@greggnicholas.com', 'website': 'http://www.thenicholasteam.com'}","{'name': 'Village Square Realtors', 'phone': '9735092222', 'email': 'villagesquarerealtors@gmail.com', 'website': 'http://www.villagesquarerealtors.com'}",9583.0,
